stop_id,stop_code,stop_name,stop_desc,stop_lat,stop_lon,zone_id
1,0001,Trento-Autostaz.,,46.070785,11.118461,0001
2,0001Bs,Trento-Solteri Bivio Ss.12,,46.084046,11.119732,0001
3,0001Bc,Trento-Bren Center,,46.091322,11.115664,0001
4,1010,Lavis,,46.138361,11.109139,1010
5,0954,S.Michele A/Adige,,46.193684,11.132524,6110
6,1030,Salorno-Salurn,,46.240611,11.208106,1030
7,1040,Laghetti-Laag,,46.271948,11.238975,1040
8,1050,Egna-Neumarkt,,46.315973,11.272452,1050
9,1059,Cela-Aguai Bivio,,46.291364,11.418721,1060
10,1060Va,Castello di F.-Via Stazione,,46.282069,11.428969,1060
11,1060,Castello di Fiemme,,46.281206,11.434741,1060
12,1070Bn,Cavalese-Bivio Carano,,46.287417,11.441664,1070
14,1070Bl,Cavalese-P.Zza Partigiani,,46.291890,11.455508,1070
15,1070Pv,Cavalese-Piazza G.Verdi,,46.290334,11.460692,1070
17,1190Gd,Tesero-Giardino Dolomiti,,46.292465,11.484695,1190
18,1190Lp,Tesero-Loc. Piera,,46.292007,11.492392,1190
19,1190,Tesero,,46.288877,11.510913,1190
20,1200Cc,Panchià-Casa Cantoniera,,46.287144,11.531920,1200
21,1200,Panchia',,46.285513,11.541747,1200
22,1210,Ziano di Fiemme,,46.286705,11.560498,1210
23,1210Rd,Ziano di Fiemme-Alla Roda,,46.288617,11.569941,1210
24,1220Bn,Predazzo-Borgo Nuovo,,46.306538,11.598956,1220
25,1220,Predazzo-Autostaz.,,46.309520,11.604929,1220
26,1220Ip,Predazzo-Distributore Agip,,46.317177,11.597112,1220
27,1220Lt,Predazzo-Impianti Latemar,,46.328660,11.600173,1220
28,1239,Mezzavalle,,46.337415,11.609737,1239
29,1240,Forno,,46.347220,11.624669,1240
30,1240Af,Forno-Albergo Foresta,,46.355078,11.634437,1240
31,1250Cc,Moena-Caserma Carabinieri,,46.369532,11.652359,1250CE
32,1250At,Moena-Albergo Trentino,,46.373211,11.655352,1250
33,1250Ce,Moena-Centro,,46.375846,11.658511,1250
34,1250Pz,Moena-Pezzè,,46.381214,11.665691,1250CE
35,1270Hl,Soraga-Hotel Al Lago,,46.392382,11.666700,1270
36,1270,Soraga,,46.396748,11.669557,1270
37,1280,Vigo di Fassa,,46.421404,11.676292,1280
38,1290,S.Giovanni di Fassa,,46.421216,11.682022,1280
39,1300,Pozza di Fassa,,46.427261,11.682917,1300
40,1310,Pera di Fassa,,46.435925,11.690519,1310
41,1310Ap,Pera di Fassa-Loc. Al Ponte,,46.441657,11.695427,1310
42,1320,Mazzin di Fassa,,46.457958,11.701369,1320
43,1330,Campestrin,,46.462994,11.715177,1330
44,1340,Fontanazzo,,46.469686,11.727819,1340
45,1350,Campitello di Fassa,,46.476504,11.740797,1350
46,1360Ca,Canazei-Hotel Caminetto,,46.479175,11.759202,1360
47,1360Gr,Canazei-Gries,,46.477899,11.763966,1360
48,1360,Canazei-Via Pareda,,46.476409,11.770873,1360
49,1360Fb,Canazei-Funivia Belvedere,,46.474083,11.774376,1360
50,1360Ip,Canazei-Difr.Hotel Faloria,,46.471558,11.777820,1360
51,1380Ha,Alba di Canazei-Hotel Ariston,,46.466319,11.780898,1380
52,1380,Alba di Canazei,,46.461948,11.783003,1380
53,1380Fc,Alba di Canazei-Fun.Ciampac,,46.459388,11.786093,1380
56,1390Pa,Penia Alta,,46.458443,11.799745,1390
58,1390Pr,Penia-Hotel Panarel,,46.457384,11.801813,1390
59,1390Rr,Penia,,46.457708,11.791880,1390
61,1380Rr,Alba di Canazei,,46.462156,11.782952,1380
62,1360Ir,Canazei-Hotel Faloria,,46.471440,11.777940,1360
63,1360Fr,Canazei-Funivia Belvedere,,46.474069,11.774728,1360
64,1360Rr,Canazei-Gries,,46.478025,11.763972,1360
65,1360Cr,Canazei-Hotel Caminetto,,46.479389,11.759638,1360
67,1340Rr,Fontanazzo,,46.469607,11.726995,1340
68,1300Up,Pozza di Fassa,,46.427925,11.683281,1300
69,1070St,Cavalese-Via Esterle,,46.293121,11.457264,1070
70,1070Hr,Cavalese-Hotel Garden,,46.289434,11.447907,1070
71,1040At,Laghetti-Laag,,46.272132,11.238775,1040
72,1030Rr,Salorno-Salurn,,46.240218,11.207190,1030
73,1010Cs,Lavis,,46.136956,11.109568,1010
74,0001Fs,Trento-Stazione Fs,,46.072600,11.120056,0001
77,0001Aa,Trento-Assoc. Artigiani,,46.082969,11.120310,0001
80,0935Bs,Gardolo-Bivio Spini,,46.118886,11.106155,0937
81,0935La,Gardolo-Loc.Lamar,,46.128918,11.109495,0937
82,1010Vc,Lavis-Via Cembra 16,,46.143208,11.106619,1010
83,1010Vb,Lavis-Via Bresadola,,46.143938,11.112489,1010
84,1010To,Lavis-Tornante-Via Cembra 50,,46.141935,11.114444,1010
85,1010Mf,Maso Franch,,46.143816,11.118841,1071
86,1071Ca,Mosana-Loc. Ai Castagnari,,46.150492,11.125740,1071
87,1071,Mosana,,46.154400,11.137231,1071
88,1072,Verla,,46.157055,11.152529,1072
89,1072Cr,Verla-Cantina Rossi,,46.154873,11.155408,1072
90,1073,Valternigo,,46.160790,11.158790,1073
91,1074,Ville di Giovo,,46.165785,11.157341,1074
92,1074Mr,Ville di Giovo-Maso Roncador,,46.162212,11.140586,1074
93,1091,Passo Croce,,46.161487,11.134622,1075
94,1075,Palu' di Giovo,,46.158215,11.140403,1075
95,1072Bv,Verla-Bivio,,46.155898,11.160681,1072
97,1077,Lisignago,,46.160457,11.187635,1077
98,1078Sl,Lisignago-Loc.Bedin,,46.164966,11.203565,1077
99,1078Ci,Cembra-Cimitero,,46.174519,11.217348,1078
100,1078,Cembra,,46.174956,11.221714,1078
101,1078Fa,Fadana,,46.177555,11.225071,1078
102,1078Mo,Cembra-Loc.Molini,,46.180271,11.228397,1078
103,1079Fb,Faver Bivio,,46.180959,11.231881,1079
104,1079,Faver,,46.181716,11.237795,1079
105,1079Uf,Faver-Ufficio Postale,,46.183755,11.240754,1079
106,1079Lp,Faver-Loc. Portegnago,,46.197032,11.246634,1079
107,1080Ca,Valda-Capitello,,46.207069,11.262068,1080
108,1080,Valda,,46.206784,11.266464,1080
110,1082,Grauno,,46.229415,11.298255,1082
111,1084Cn,Capriana-Case Nuove,,46.261033,11.339913,1084
112,1084,Capriana,,46.262789,11.339456,1084
113,1083,Capriana-Albergo Miravalle,,46.262057,11.343992,1084
114,1085,Carbonare-Rover,,46.266757,11.351746,1085
115,1087,Stramentizzo Bivio,,46.266504,11.406487,1088
116,1088,Molina di Fiemme-Paese,,46.272357,11.417227,1088
117,1088Vs,Molina di F.-Via Segherie,,46.272436,11.424112,1088
118,1088Sc,Molina di Fiemme-Scuole,,46.274181,11.416707,1088
119,1060Ft,Castello di Fiemme-Conc.Fiat,,46.278941,11.430137,1060
121,1060Rr,Castello di Fiemme,,46.281233,11.434752,1060
123,1088Vr,Molina di Fiemme-Via Segherie,,46.272409,11.424124,1088
124,1081Rr,Grumes,,46.221516,11.294054,1081
125,1079Rr,Faver,,46.181189,11.236672,1079
126,1078Fr,Fadana,,46.178185,11.225990,1078
127,1078Rr,Cembra,,46.175121,11.222045,1078
129,1076Rr,Ceola,,46.159543,11.170891,1076
130,1072Rr,Verla,,46.157152,11.152810,1072
131,1010Br,Lavis-Via Bresadola,,46.143962,11.112745,1010
133,0938,Lamar di Gardolo-Ss.12-Ftm,,46.125856,11.107861,0937
134,0935Ss,Gardolo-Ss.12,,46.108559,11.108767,0935
135,0935Ca,Gardolo-Cicli Moser,,46.102641,11.110469,0935
137,1127,Casatta di Valfloriana,,46.250381,11.344532,1127
138,1128,Barcatta,,46.250421,11.349659,1128
139,1129,Villaggio Italo-Svizzero,,46.247854,11.346661,1129
140,1130,Dora',,46.251863,11.355635,1135
141,1131,Palu' di Sicina,,46.256917,11.363017,1135
142,1132,Casanova di Sicina,,46.241992,11.349809,1135
143,1133,Valle,,46.238605,11.351281,1135
144,1134,Montalbiano,,46.234426,11.355133,1135
145,1135,Sicina,,46.230004,11.358752,1135
532,0001Vg,Trento-V.Giusti-L. Da Vinci,,46.063168,11.119074,0001
533,0001Ve,Trento-Via V.Veneto,,46.057701,11.119291,0001
535,0001Vl,Trento-Via Lorenzoni,,46.058380,11.122963,0001
537,0001Vf,Trento-Via S.Francesco,,46.066636,11.126202,0001
538,4070,Montesover,,46.217084,11.327086,4070
539,4070Sv,Montesover-Strada Vernera,,46.218166,11.326641,4070
540,4070Ve,Montesover-Strada Vernera 17,,46.217389,11.324145,4070
541,4070Ca,Montesover-Carrozzeria,,46.215296,11.328103,4070
542,1125,Sveseri Bivio,,46.207640,11.327808,1141
543,1124,Piazzoli,,46.214463,11.323294,1123
544,1123,Facendi,,46.214915,11.321421,1123
546,1122,Sover,,46.223891,11.312418,1122
548,0946,Nave S.Felice,,46.164603,11.112269,0946
549,0943,Sorni Bivio,,46.174975,11.122031,0944
551,0944,Sorni,,46.173837,11.120538,0944
552,0946Rr,Nave S.Felice,,46.166611,11.112923,0946
557,1070It,Cavalese-Case Itea,,46.289538,11.469412,1070
559,1153,Milon,,46.285862,11.479729,1070
560,1151Cs,Masi-Campo Sportivo,,46.283459,11.480809,1070
561,1151Pb,Masi-Piccolo Bar,,46.283360,11.483310,1070
562,1151,Masi di Cavalese,,46.283280,11.485357,1070
563,1151Vc,Masi-Via Chiesa Civ.118,,46.284431,11.489109,1070
564,1070Dr,Marco di Cavalese,,46.290351,11.476383,1070
566,1150Bs,Carano-Via Giovanelli 11,,46.292292,11.442660,1070
567,1150Mu,Carano-Municipio,,46.292221,11.440488,1070
568,1150,Carano,,46.291789,11.438794,1070
569,1150Ba,Carano-Albergo Bagni,,46.290458,11.438774,1070
570,1150Gb,Carano-Garnì Belvedere,,46.287392,11.435856,1070
572,1152Bp,Villaggio Veronza-Bv.Pizzeria,,46.287843,11.428652,1152
574,1152Vp,Villaggio Veronza-Via Pale,,46.288769,11.431450,1152
575,1152Hv,V.Veronza-H.Veronza,,46.289865,11.433202,1152
578,0001St,Trento-Via Valsugana,,46.068327,11.136287,0001
579,4010,Ponte Alto,,46.073787,11.150439,4010
580,4015,Pinè Bivio,,46.081905,11.194970,4015
581,4021,Sille,,46.086063,11.202932,4021
582,4022Bl,Madrano-Belvedere,,46.084668,11.210388,4022
584,4022,Madrano,,46.085924,11.214313,4022
585,4022Vv,Madrano-Via Della Vizza,,46.091338,11.212180,4022
586,4023,Nogare',,46.103925,11.211299,4023
587,4029,S.Mauro-Bivio,,46.116607,11.222363,4029
588,4024,Tressilla,,46.128796,11.237227,4024
589,4025Up,Baselga P.-Municipio,,46.130017,11.243841,4025
590,4025,Baselga di Pine'-Lago,,46.135502,11.249837,4025
591,4032,Sternigo Bivio,,46.141638,11.257922,4032
592,4043,Rizzolaga,,46.146547,11.264079,4043
593,4044,Campolongo,,46.149594,11.269501,4044
594,4045Bs,Piazze Bivio,,46.155593,11.278561,4045
595,4045,Piazze di Bedollo,,46.155636,11.288077,4045
596,4047,Castellani-Regnana Bivio,,46.159769,11.298666,4046
597,4046,Centrale di Bedollo,,46.160828,11.302262,4046
598,4050,Bedollo,,46.164985,11.301342,4050
599,4050Bv,Bedollo Bivio,,46.170023,11.312441,4050
600,4050Vl,Bedollo Villaggio,,46.172909,11.317053,4050
601,4060Vv,Brusago-Via Verdi,,46.175772,11.321442,4060
602,4060,Brusago,,46.182123,11.325860,4060
603,4060Cv,Brusago-Civ. 4,,46.186573,11.329595,4060
604,4060Mg,Brusago-Maso Gabart,,46.194274,11.327788,4060
605,4065,Sette Fontane Bivio,,46.199008,11.327741,1141
606,1141,Sveseri,,46.206441,11.323666,1141
607,4050Rr,Bedollo,,46.164986,11.301527,4050
608,4045Rr,Piazze di Bedollo,,46.155858,11.287334,4045
609,4044Rr,Campolongo,,46.149606,11.269113,4044
610,4015Rr,Pinè Bivio,,46.081958,11.196441,4015
611,4010Rr,Ponte Alto,,46.073949,11.150317,4010
612,0001Pa,Trento-Port'aquila,,46.069905,11.128513,0001
613,0001Vp,Trento-Via Perini,,46.060824,11.124153,0001
614,1100Pi,Civezzano-Centro Europa,,46.083514,11.199034,1100
615,1100Se,Civezzano-Quadrivio,,46.090068,11.185168,1100
616,1100,Civezzano,,46.091869,11.183174,1100
617,4080,Cirè-Superstrada,,46.077733,11.204086,4015
618,1001Bs,Torchio,,46.090705,11.197409,1001
619,1101,Cogatti,,46.093519,11.196416,1001
620,1102,Seregnano,,46.094472,11.200444,1001
621,1103,Roverè,,46.090452,11.193247,1103
622,1104,Bampi Bivio,,46.093747,11.190641,1103
623,1098,Barbaniga,,46.101736,11.186340,1098
624,1105,S.Agnese,,46.106347,11.183849,1105
625,1105Df,S.Agnese-Difr. Al Civ. 64,,46.106519,11.186159,1105
626,1107,Mazzanigo,,46.103635,11.189195,1105
627,1108Cv,Penedallo-Difr. Al Civ. 1,,46.102875,11.191745,1105
628,1108,Penedallo,,46.101014,11.192553,1105
629,1106,Bosco di Civezzano,,46.111066,11.170991,1106
630,1106Ca,Bosco-Loc. Canova,,46.113877,11.175541,1106
632,1001,Torchio-S.P. 71,,46.091408,11.198343,1001
633,1110,Valle Fornace,,46.111868,11.210363,1110
634,1111Bv,Fornace Bivio,,46.119112,11.216117,1111
636,1111,Fornace,,46.118058,11.208113,1111
637,1111Ca,Fornace-Via Campogrande 5,,46.120699,11.209196,1111
638,1117,S.Stefano,,46.128531,11.212040,1111
639,1111Md,Fornace-Maso Donati,,46.120439,11.216456,1111
640,1112Co,Lases,,46.143536,11.218874,1112
641,1113Mo,Albiano-Via Roma Civ.35,,46.143814,11.198966,1112
642,1113,Albiano,,46.144616,11.193779,1112
643,1113Vs,Albiano-Via S.Antonio Civ.54,,46.146254,11.190465,1112
644,1113Vd,Albiano-Via S.Antonio Civ 90,,46.148464,11.187406,1112
646,1112,Lases-Civ. 30,,46.144611,11.219172,1112
647,1112Rm,Lases-Loc. Ronc Del Mela,,46.149542,11.221571,1112
648,1114Vp,Lona-Via Provinciale,,46.156073,11.230504,1114
649,1114,Lona,,46.160390,11.234805,1114
650,1114Pz,Lona-Loc. Piazzole,,46.162898,11.240964,1114
651,1115,Sevignano,,46.170787,11.247119,1115
652,1116,Piazzo di Segonzano Bivio,,46.180041,11.257966,1115
653,1118,Scancio di Segonzano,,46.187468,11.258374,1118
654,1118Sb,Scancio di Segonzano-Snack Bar,,46.191890,11.259595,1118
655,1118Ma,Scancio di Segonzano Mad.Aiuto,,46.196166,11.258614,1118
656,1120,Gaggio/Gresta Bivio,,46.207792,11.286819,1120
657,1137,Valcava Bivio,,46.217867,11.305176,1137
658,1122Bv,Sover-Bar Vittoria,,46.221404,11.314764,1122
660,1122Mz,Sover-Loc. Mezauno,,46.231131,11.318876,1122
662,1126Gr,Piscine-Loc. Grava,,46.246752,11.332537,1126
664,1136,Pradel,,46.260328,11.355420,1136
665,1140,Loc. Ronco,,46.260433,11.384836,1140
666,1140Me,Loc. Melae,,46.263127,11.397791,1140
667,1087Fl,Stramentizzo-Bivio,,46.266408,11.406559,1088
669,1136Rr,Pradel,,46.262398,11.355420,1136
670,1118Sr,Scancio di Segonzano,,46.191607,11.258893,1118
671,1112Es,Lases-Distributore Esso,,46.150438,11.222695,1112
672,1112Pe,Lases-Pesa,,46.143739,11.218683,1112
673,4100,Pergine V.,,46.061248,11.237033,4100
675,4100Vb,Pergine-Via Baratieri,,46.063947,11.242777,4100
676,4100Ta,Pergine-Distr. Tamoil,,46.065170,11.247430,4100
677,4111,Zivignago,,46.067276,11.252921,4111
678,4111Co,Zivignago-Cons.S.Orsola,,46.070153,11.257161,4111
679,4112St,Canezza-Maso Sleifer,,46.076276,11.269737,4112
682,4112,Canezza,,46.076974,11.274491,4112
683,4112So,Canezza-Dif. Al Sole,,46.080149,11.275946,4112
684,4112Dr,Canezza-Maso Dràzeri,,46.084557,11.277669,4112
685,4121Bv,Viarago-Bivio,,46.086386,11.277786,4122
686,4122Ag,Mala-Loc.Agnoletti,,46.088686,11.279793,4122
687,4122,Mala,,46.090560,11.281513,4122
688,4123Ma,S.Orsola-Loc.Mantovani,,46.095743,11.289216,4118
689,4118,Stefani,,46.098590,11.294205,4118
690,4123Be,S.Orsola-Loc.Bertoldi,,46.102573,11.298243,4123
691,4123,S.Orsola,,46.107693,11.301880,4123
693,4123Do,S.Orsola-Loc.Donadi,,46.111674,11.306197,4123
694,4124,Bagni Terme di S.Orsola,,46.113764,11.307889,4123
695,4123Dm,S.Orsola-Loc. Doss Martin,,46.114670,11.307600,4123
696,4123Bb,Marcheli-Bivio Borti E Cont,,46.117554,11.310066,4125
697,4125Mm,Fontanari-Maso Marcheli,,46.119434,11.313238,4125
698,4125,Fontanari,,46.121169,11.316456,4125
699,4126Bv,Palù Del F.-Redebus,,46.130238,11.340914,4126
700,4126Ls,Palù Del F.-Loc. Sigismondi,,46.129804,11.344495,4126
701,4126Hl,Palù Del F.-Hotel Lagorai,,46.129512,11.348876,4126
702,4126,Palu' Del Fersina,,46.129731,11.352867,4126
703,4123Rr,S.Orsola,,46.107831,11.302005,4123
708,1250Hc,Moena-Hotel Campagnola,,46.374003,11.665009,
709,1251,Alpe Lusia,,46.367804,11.686058,1251
710,1256,Fango,,46.368794,11.728398,1256
711,1256Hn,Fango-Alb. Negritella,,46.374785,11.751966,1256
712,1253Sc,P.So S.Pellegrino-Segg.Cost.,,46.378743,11.784393,1253
713,1253,Passo S.Pellegrino-Ht.Arnika,,46.378138,11.789632,1253
714,1253Ch,P.So S.Pellegrino-Chiesetta,,46.378321,11.793369,1253
715,1253Cm,P.So S.Pellegrino-Fun.C.Mar.,,46.379108,11.802051,1253
716,1253Bf,P.So S.Pellegrino-B. V.Freda,,46.378808,11.813507,1253
717,1254,Zingari,,46.376208,11.820593,1254
718,1255Al,Falcade Alto,,46.355341,11.858411,1255
719,1255Ch,Falcade-Chiesa,,46.354314,11.861698,1255
720,1255Vs,Falcade-Via Serafini,,46.355060,11.866761,1255
721,1255,Falcade,,46.358372,11.872868,1255
722,0001Co,Trento-Off.Conotter,,46.076776,11.100106,0001
723,0001Be,Trento-Via Brescia 4,,46.070536,11.111496,0001
724,2610,Montevideo,,46.080369,11.098522,0001
725,2010,Cadine,,46.088572,11.064986,2010
726,2020,Terlago Bivio,,46.091545,11.055126,2030
727,2030,Vigolo Baselga-Paese,,46.081449,11.044965,2030
728,2030Pr,Vigolo Baselga-Pallonc.Rosso,,46.077626,11.032474,2030
729,2040,Vezzano,,46.078475,10.999800,2040
731,2040Bv,Vezzano-Bivio Val di Cavedine,,46.071568,10.994704,2040
732,2090Ss,Padergnone-Sulla Sp,,46.063516,10.993243,2090
733,2090Ba,Padergnone-Loc.Barbazan,,46.060053,10.990529,2090
734,2090,Padergnone,,46.062089,10.988852,2090
735,2090Ce,Padergnone-Case Enel,,46.058818,10.982886,2090
736,2100,Due Laghi-Hotel Miralaghi,,46.058851,10.979182,2101
737,2110,Castel Toblino,,46.056347,10.965437,2110
739,2120Mc,Sarche-Maso Caffaro,,46.046073,10.945217,2120
740,2120Bm,Sarche-Bar Miravalle,,46.044456,10.944797,2120
741,2170,Comano Terme,,46.041193,10.881910,2180
742,2180,Ponte Arche-Autost.,,46.035587,10.873617,2180
743,2180Bs,Ponte Arche-Bel Sit,,46.036219,10.864709,2180
744,2240Dp,Ponte Ragoli-Sp34 Dir. Ragoli,,46.050484,10.785337,2240
746,2268Li,Zuclo Ss237 "Superm. Lidl",,46.040152,10.748601,2270
748,2240,Ponte Ragoli-Ss.237-Dir. Saone,,46.049764,10.785625,2240
749,2250Pz,Ragoli-Pez,,46.051079,10.781306,2240
751,2251,Preore,,46.046154,10.758110,2240
752,2251Si,Preore-Loc.Signor,,46.044621,10.752413,2240
754,2268,Zuclo Bivio-Segheria Tonello,,46.038745,10.744295,2270
755,2271Bv,Bolbeno-Bivio,,46.033970,10.735274,2270
756,2290Ba,Tione-Bar Arnò,,46.034864,10.732481,2290
757,2290,Tione-Autostazione,,46.033132,10.726114,2290
758,2290Ci,Tione-Via Circonvallaz.,,46.040222,10.727473,2290
759,2291,Verdesina Bivio,,46.056997,10.716268,2291
760,2340,Villa Rendena,,46.062476,10.712201,2340
761,2350,Iavrè,,46.068036,10.711738,2350
762,2350Ar,Iavrè-Artigianato,,46.070709,10.713789,2350
763,2360,Darè,,46.075923,10.717568,2360
764,2370,Vigo Rendena,,46.078733,10.718957,2370
765,2370Bv,Vigo Rendena-Biv.Val S.Val.,,46.082037,10.722143,2370
766,2380,Pelugo,,46.087322,10.723226,2380
767,2380Su,Pelugo-Artigianato,,46.088071,10.725461,2380
768,2390,Borzago,,46.098857,10.734738,2390
769,2400,Spiazzo Rendena,,46.102944,10.737686,2400
772,2420Bb,Strembo-Bivio Bocenago,,46.118184,10.752834,2420
773,2420,Strembo,,46.120371,10.751922,2420
774,2430,Caderzone,,46.128901,10.756508,2430
775,2430Of,Caderzone-Off. Alfa Romeo,,46.131787,10.764304,2430
776,2440,Giustino,,46.145927,10.768305,2440
777,2440Hv,Giustino-Hotell Royal,,46.153692,10.766169,2440
778,2450,Pinzolo,,46.157164,10.765988,2450
779,2450Fu,Pinzolo-Funivie,,46.163441,10.765458,2450
780,2460,Carisolo,,46.169320,10.764149,2460
781,2460Pb,Carisolo-Pinemonte Basso,,46.188013,10.772362,2460
782,2470Cf,S.Antonio di M.-Camping Faè,,46.185864,10.779174,2470
783,2470Vn,S.Antonio di M.-Biv.V.Nambr.,,46.188184,10.777525,2470
784,2470Vv,S.Antonio di M.-Vigili Fuoco,,46.190053,10.785814,2470
785,2470,S.Antonio di Mavignola,,46.191370,10.789123,2470
786,2470Vf,S.Antonio di M.-Rio Fornas,,46.193908,10.795957,2470
787,2470Ri,S.Antonio di M.-Rio V.Rastrel,,46.195343,10.795758,2470
788,2470Pa,S.Antonio di M.-Palù,,46.197373,10.797107,2470
789,2470Mf,S.Antonio di M.-Mumble Fratè,,46.200599,10.804013,2470
790,0957Fo,Madonna di C.-Loc.Fontanella,,46.208856,10.820246,0957
791,0957Hl,Madonna di C.-H. Lorenzetti,,46.214137,10.822365,0957
792,0957Hb,Madonna di C.-Hotel Betulla,,46.220872,10.822457,0957
793,0957Vf,Madonna di Campiglio-Vvff,,46.224540,10.825264,0957
794,0957Lg,Madonna di C.-Laghetto,,46.226019,10.827868,0957
795,0957Ds,M. Campiglio,,46.230343,10.827885,0957
796,0957Fp,Madonna di C.-Fun. Pradalago,,46.234031,10.826079,0957
797,0957Hd,Madonna di C.-Hotel Dahu,,46.234409,10.823829,0957
798,0957,M.Campiglio-P.Brenta Alta,,46.231942,10.826145,0957
799,0957Vn,Madonna di C.-Biv. V.Nambino,,46.235465,10.826428,0957
800,0957Gr,Funivia Grostè,,46.236312,10.835363,0958
801,0958,Campo Carlomagno,,46.242978,10.840032,0958
803,0958Rr,Campo Carlomagno,,46.243225,10.840253,0958
804,0957Rr,Funivia Grostè,,46.236409,10.835464,0958
805,2101,S.Massenza,,46.065484,10.980462,2101
807,0957Fr,Madonna di C.-Loc.Fontanella,,46.208587,10.819861,0957
808,2470Mr,S.Antonio di M.-Mumble Fratè,,46.200492,10.803664,2470
812,2470Nr,S.Antonio di M.-Biv.V.Nambr.,,46.188256,10.778149,2470
813,2470Cr,S.Antonio di M.-Camping Faè,,46.185659,10.778454,2470
814,2460Rr,Carisolo,,46.169099,10.763891,2460
815,2450Fr,Pinzolo-Funivie,,46.163723,10.765273,2450
816,2440Hr,Giustino-Hotel Royal,,46.153492,10.766254,2440
818,2400Cr,Spiazzo Rend.-Conc.Cozzio,,46.110613,10.747633,2400
819,2410Rr,Mortaso,,46.106772,10.739864,2400
820,2400Rr,Spiazzo Rendena,,46.102588,10.736821,2400
821,2390Rr,Borzago,,46.098884,10.734790,2390
823,2370Br,Vigo Rendena-Biv.Val S.Val.,,46.082368,10.722321,2370
824,2370Rr,Vigo Rendena,,46.078901,10.719153,2370
825,2360Rr,Darè,,46.075878,10.717528,2360
826,2350Rr,Iavrè,,46.068841,10.711465,2350
827,2291Rr,Verdesina Bivio,,46.056766,10.716638,2291
829,2290Cr,Tione-Via Circonvallaz.,,46.040014,10.727518,2290
830,2021,Terlago,,46.097757,11.044740,2021
831,2022Bs,Covelo Bivio,,46.098388,11.022717,2023
832,2022Vp,Covelo-Via N.Poli,,46.096643,11.018074,2023
833,2022,Covelo,,46.098290,11.019005,2023
834,2025,Maso Ariol,,46.106105,11.026542,2023
835,2023Bv,Monte Terlago-Bivio,,46.108167,11.035614,2023
836,2023,Monte Terlago-P.Zza,,46.109656,11.037895,2023
837,2023Vl,Monte Terlago-Loc.Vallene,,46.109037,11.042854,2023
838,2023Al,Monte Terlago-H. 2 Laghi,,46.112079,11.046119,2023
839,2010Rr,Cadine,,46.088855,11.064513,2010
841,0001Mp,Trento-Maso Pedrotti,,46.076745,11.098135,0001
842,0001Sa,Trento-Loc. S.Antonio,,46.069885,11.100439,0001
843,2620Ms,Sardagna-Maso Scala,,46.069871,11.097749,2620
844,2620,Sardagna,,46.064848,11.097290,2620
845,2620To,Sardagna-Tornante Sp 85,,46.071418,11.086984,2620
847,2630Be,Candriai-Bar Erika,,46.063071,11.082260,2630
848,2631,Centro A.Degasperi,,46.059629,11.077756,2631
849,2640Bp,Vaneze-Bivio Prà Della Fava,,46.056968,11.076349,2640
850,2271Br,Bolbeno-Bivio,,46.034112,10.735532,2270
853,2251Sr,Preore-Loc. Signor,,46.044911,10.752913,2240
854,2250Rr,Ragoli,,46.050989,10.776581,2240
855,2250Pr,Ragoli-Pez,,46.050940,10.780061,2240
856,2270Ve,Zuclo Morace Antichità,,46.041992,10.753635,2240
857,2260Wr,Saone,,46.042589,10.766915,2240
858,2240Pp,Ponte Ragoli-Ss.237 Dir.Sarche,,46.050263,10.786769,2240
859,2180Br,Ponte Arche-Bel Sit,,46.036139,10.864628,2180
861,2170Rr,Comano Terme,,46.041141,10.882865,2180
863,2090Rr,Padergnone,,46.061989,10.989465,2090
865,2030Rr,Vigolo Baselga-Ss45,,46.080844,11.043572,2030
868,2290Br,Tione-Bar Arno',,46.034257,10.733257,2290
869,2120,Sarche-Cassa Rurale,,46.046415,10.952067,2120
870,2120Rr,Sarche-Centro Comm.,,46.046442,10.952107,2120
871,2640,Vaneze,,46.051918,11.071938,2640
872,2640Pa,Vaneze-Sp.85,,46.051411,11.069391,2640
873,2645,Vaneze-Norge,,46.049242,11.066660,2645
874,2640Mo,Vaneze-Baita Montesel,,46.045839,11.065184,2645
875,2640To,Vaneze-Ex Snack Bar,,46.044388,11.060838,2650
877,2660,Viote,,46.021402,11.041172,2660
878,2650Rr,Vason,,46.039098,11.057695,2650
879,2640Mr,Vaneze-Baita Montesel,,46.046329,11.065049,2645
880,2630Rr,Candriai,,46.066037,11.084466,2630
884,2270,Zuclo,,46.034160,10.747301,2270
885,2271,Bolbeno,,46.032567,10.737551,2270
887,2272,Coltura,,46.058271,10.793851,2240
889,2251Bm,Preore Bivio Montagne,,46.046119,10.756556,2240
890,2281,Montagne-Cort,,46.050723,10.753627,2280
891,2282,Montagne-Larzana,,46.058445,10.751304,2280
892,2280,Montagne-Binio,,46.065609,10.755140,2280
894,2270Rr,Zuclo,,46.034087,10.747095,2270
895,2450Rr,Pinzolo,,46.157196,10.764400,2450
896,2041,Fraveggio Bivio,,46.078617,10.993865,2040
897,2042,Lon,,46.084191,10.992669,2040
898,2043,Ciago,,46.089243,11.004842,2040
899,2044,Margone Bivio,,46.068390,10.972999,2045
900,2045,Ranzo,,46.064110,10.942541,2045
901,2046,Margone,,46.068219,10.963864,2045
903,2043Sp,Ciago-Sp. 18 Civ.1,,46.089161,11.008008,2040
905,2044Rr,Margone Bivio,,46.068021,10.973815,2045
906,2042Fr,Lon-Ris. Fior di Roccia,,46.084858,10.991606,2040
909,4400,Borgo V.-C.Intermodale,,46.052041,11.463335,4400
910,4400Os,Borgo Vals.-Ospedale,,46.056441,11.464242,4400
911,4400Va,Borgo Vals.-Valli,,46.055483,11.469823,4400
912,4460,Castelnuovo-Malerba,,46.053807,11.481145,4450
913,4450,Castelnuovo,,46.052197,11.494280,4450
914,4449,Strigno-Stazione Fs,,46.051474,11.514737,4449
915,4451In,Agnedo-Incrocio,,46.051000,11.525010,4451
916,4451,Agnedo,,46.052516,11.528682,4451
917,4451Vo,Agnedo-Via Per Ospedaletto,,46.048287,11.531302,4451
918,4451Vs,Agnedo-Via Per Ospedaletto 8,,46.046836,11.542288,4451
919,4452,Ospedaletto,,46.044851,11.550784,4452
920,4452Fs,Ospedaletto-Ss/F.S.,,46.041590,11.548690,4452
921,4452Np,Ospedaletto Loc. Barricata,,46.036355,11.561032,4452
922,4452Vp,Ospedaletto-Via Pradenella,,46.033870,11.573069,4452
923,4453,Tollo,,46.028363,11.587738,4453
924,4454,Grigno,,46.015036,11.635237,4454
925,4454Se,Grigno-Segheria,,46.015219,11.636698,4454
926,4456,Palù di Grigno,,46.007300,11.654865,4456
927,4455,Serafini,,46.004039,11.660404,4455
928,4498,Belvederi di Grigno,,46.001081,11.665287,4498
929,4457Vm,Tezze-Via Masetto Vecchio 16,,45.993791,11.670273,4457
930,4457,Tezze,,45.991214,11.671734,4457
931,4458,Martincelli,,45.977982,11.680805,4458
932,4490,Primolano-Alb.Giardino,,45.965203,11.707060,4490
933,4452Rr,Ospedaletto,,46.044687,11.550965,4452
934,4112Bv,Canezza-Bivio,,46.076785,11.275863,4112
935,4112Mo,Canezza-Loc. Molini,,46.076818,11.282744,4112
936,4112Pi,Canezza-Loc. Pinterhof,,46.078874,11.283443,4112
937,4140Pi,Frassilongo-Maso Pizzi,,46.084010,11.290375,4113
938,4140Mo,Frassilongo-Maso Molinari,,46.084562,11.291109,4113
939,4300,Levico Terme-Autostazione,,46.010161,11.298858,4300
940,4300Pm,Levico T.-P.Za Medici,,46.008963,11.309513,4300
941,4310,Barco,,46.004584,11.335619,4310
942,4300Pr,Levico T.-P.Za Medici,,46.008788,11.308239,4300
943,4047Dc,Regnana Biv.-Dopo A.Costalta,,46.159984,11.300172,4046
944,4048Vd,Regnana-Via Redebus 9,,46.156251,11.308984,4048
945,4048,Regnana,,46.154104,11.309902,4048
946,4400Bo,Borgo Vals.-Sp.40,,46.051473,11.456467,4400
947,4410Tc,Olle-Trattoria Alla Croce,,46.041590,11.460248,4410
948,4410Bo,Olle-Via Del Boaletto,,46.040761,11.465108,4410
949,4410,Olle,,46.040808,11.464163,4410
950,4100Vr,Pergine V.-Via Rosmini 19,,46.060945,11.232468,4100
951,4138,Costasavina,,46.058110,11.213982,4137
952,4139,Fornaci di Roncogno,,46.064069,11.224112,4137
953,4137,Roncogno,,46.069354,11.207320,4137
954,4319Pp,Maso Colpi Bivio Via Tiglio,,45.997669,11.318198,4320
955,4319,Maso Colpi Bivio,,45.995463,11.319324,4320
956,4320Cv,S.Giuliana-Civ.41,,45.993090,11.311893,4320
957,4320,S.Giuliana,,45.991575,11.315123,4320
958,4030,S.Mauro,,46.125272,11.223917,4030
959,1121,Valcava,,46.206286,11.311970,1121
960,4061,Svaldi,,46.170079,11.301642,4061
961,4090,Ponte Fersina,,46.069816,11.223412,4100
962,4100Vd,Pergine V.-Viale Dante,,46.065908,11.228116,4100
963,4280,Masetti-Strada Provinciale,,46.052647,11.249267,4280
965,4300Mi,Levico T.-Alb.Miralago,,46.014468,11.294593,4300
966,4300Ci,Levico Terme-Cimitero,,46.008855,11.316263,4300
967,4300Bb,Levico Terme-Sp.228,,46.016487,11.330915,4300
968,4350,Campiello di Levico,,46.019576,11.356679,4350
969,4360,Novaledo,,46.022213,11.366074,4360
970,4360Vr,Novaledo-Via Roati,,46.027411,11.374066,4360
971,4361,Novaledo-Loc.Campregher,,46.029340,11.382792,4361
972,4370An,Marter-Loc.Angeli,,46.030565,11.388362,4370
973,4370,Marter-Autoespresso,,46.034103,11.394317,4370
974,4380Vc,Roncegno-Via Ciocca,,46.044667,11.406879,4380
975,4380,Roncegno Terme,,46.049671,11.411174,4380
976,4380Cs,Roncegno-Centro Polisportivo,,46.049008,11.421467,4380
977,4400Fs,Borgo Vals.-Staz. Fs,,46.051441,11.454415,4400
978,4500,Scurelle,,46.065058,11.506674,4500
979,4500Va,Scurelle-Via 15 Agosto,,46.062960,11.514492,4500
980,4467,Villa,,46.057745,11.519774,4449
981,4522,Strigno-Bivio Ivano Fracena,,46.061558,11.523764,4511
983,4530,Tomaselli,,46.069104,11.528309,4530
984,4530Bl,Tomaselli-Bivio Latini,,46.071154,11.536719,4530
985,4540Vd,Bieno-Via Bettega,,46.075320,11.540816,4540
986,4540Bc,Bieno-Via Lusumina,,46.084130,11.550569,4540
987,4540,Bieno,,46.080268,11.553834,4540
988,4540Vr,Bieno-Via Roma,,46.081287,11.558990,4540
989,4541,Pradellano,,46.079566,11.577673,4541
990,4541La,Pradellano-Al Lago,,46.076086,11.588456,4541
991,4550Pf,Pieve Tesino-Passo Forcella,,46.070956,11.592248,4550
992,4550Vf,Pieve Tesino-Case Itea,,46.068561,11.605522,4550
993,4550Bv,Cinte Tesino Bivio,,46.066533,11.607625,4550
994,4560Ba,Cinte Tesino-Stab.Bailo,,46.063234,11.609771,4550
996,4560,Cinte Tesino,,46.057645,11.613706,4550
998,4550,Pieve Tesino,,46.067684,11.612774,4550
999,4570Pb,Castello T.-Loc. Al Ponte,,46.070757,11.622036,4570
1000,4570Ag,Castello T.-Ip,,46.068606,11.625943,4570
1001,4570Bc,Castello T.-Via Baili,,46.064290,11.628880,4570
1002,4570,Castello Tesino,,46.064873,11.633294,4570
1003,4100Bs,Pergine V.-Bivio Susà,,46.056775,11.236747,4100
1005,4200,S.Cristoforo Al Lago,,46.038778,11.233503,4200
1006,4250,Valcanover,,46.026716,11.229254,4250
1007,4260Hd,Valcanover-Pizz.Happy Days,,46.016696,11.233983,4250
1008,4260Bf,Calceranica-Bar Floris,,46.006556,11.241153,4260
1010,4270Vm,Caldonazzo-Via Marconi,,45.994597,11.256980,4270
1011,4270,Caldonazzo,,45.993374,11.260641,4270
1012,4270Ro,Caldonazzo-Via Roma,,45.994526,11.270753,4270
1013,4270Sp,Caldonazzo-Sp. Civ.85/B,,45.998136,11.279595,4270
1014,4300Rb,Levico T.-Rist. Brenta,,46.006387,11.291849,4300
1015,4300Rr,Levico T.-Rist.Brenta,,46.006543,11.291893,4300
1016,4270Pt,Caldonazzo,,45.993610,11.260696,4270
1017,4270Vr,Caldonazzo-V.Marconi,,45.995308,11.256569,4270
1018,4260Rr,Calceranica Al Lago,,46.004091,11.243365,4260
1019,4250Rr,Valcanover,,46.027390,11.229319,4250
1020,4200Rr,S.Cristoforo Al Lago,,46.038968,11.233977,4200
1021,4100Fe,Pergine V.-Via Al Lago Civ 17,,46.053382,11.235382,4100
1022,4200Bd,S.Cristoforo-Bivio Darsena,,46.039889,11.239810,4200
1023,4210Te,Ischia-Alle Terrazze,,46.012667,11.261720,4200
1024,4292,Brenta Bivio,,46.004789,11.274534,4292
1025,4292Rr,Brenta Bivio,,46.005569,11.272279,4292
1026,4210Tr,Ischia-Alle Terrazze,,46.014088,11.260421,4200
1028,4100Rr,Pergine V.,,46.061538,11.237586,4100
1029,4113,Roveda Bivio,,46.086443,11.293810,4113
1030,4140,Frassilongo,,46.089502,11.297433,4140
1031,4140No,Frassilongo-Maso Doss Hecchi,,46.092488,11.302722,4140
1032,4140Pu,Frassilongo-Maso Puech,,46.094064,11.304207,4140
1033,4141Ga,Fierozzo-Loc. Gaigheri,,46.096613,11.311683,4141
1034,4141,S.Francesco,,46.100363,11.310541,4141
1035,4142,S.Felice Fierozzo,,46.111159,11.318516,4142
1037,4100Rg,Pergine V.-Via Regensburger,,46.064432,11.242028,4100
1038,4100Rs,Pergine V.-V.Regensb/Bellini,,46.067887,11.239690,4100
1039,4119,Casalino-Stadio Del Ghiaccio,,46.072183,11.235642,4100
1040,4132,Casalino,,46.073686,11.230356,4132
1041,4133,Vigalzano,,46.076931,11.228473,4133
1042,4133Vg,Vigalzano-Via Del Sgualdi,,46.079790,11.226832,4133
1043,4134Vp,Canzolino-Via Pianezze,,46.081871,11.222569,4134
1044,4134Sc,Canzolino-Scuole,,46.083822,11.219086,4134
1046,4022Am,Madrano-Alb.Madrano,,46.085656,11.215136,4022
1048,0961,S.Martino di Castrozza,,46.262152,11.804287,0961
1049,0961Cf,S.Martino di C.-H.Cristallo,,46.258679,11.802423,0961
1050,5180,Impianti Tognola,,46.254704,11.800066,5180
1051,5170,Valmesta,,46.227085,11.808750,5170
1052,5160Vs,Siror-Birr.Val Serena,,46.189864,11.825319,5160
1053,5160,Siror,,46.187088,11.830580,5160
1054,5140Tr,Tressane,,46.179307,11.832565,5140
1055,5140Pm,Ponte Mirabello,,46.177663,11.831366,5140
1056,5140,Fiera di Primiero,,46.174311,11.828603,5140
1057,5140Hp,Fiera di P.-Sup.Trentini,,46.171606,11.824472,5140
1058,5135,Sorive,,46.160368,11.819909,5135
1059,5130Sa,Mezzano-Albergo Salgetti,,46.156242,11.814595,5130
1060,5130,Mezzano,,46.154591,11.805976,5130
1061,5110Sh,Imer--Sup. Schlecker,,46.151919,11.800797,5110
1062,5110,Imer,,46.150662,11.794431,5110
1063,5111,Masi di Imer,,46.145284,11.785768,5111
1064,5108,S.Silvestro,,46.131439,11.769023,5111
1065,5100,Pontet,,46.106741,11.774054,5100
1066,5090,Port,,46.092965,11.761661,5090
1067,5090Pv,Val Rosna,,46.084136,11.764421,5090
1069,5070,Ponte Oltra,,46.060534,11.763205,5070
1070,5060,Fontane di Lamon,,46.036416,11.761574,5060
1071,5050,Ponte Serra,,46.029632,11.762566,5050
1072,5040Ps,Fonzaso-Pedesalto,,46.021116,11.781461,5040
1073,5040,Fonzaso,,46.016660,11.802563,5040
1074,5030,Arten,,46.008258,11.831188,5030
1076,5010Gz,Feltre-Gel. La Zuecca,,46.019048,11.893374,5010
1078,5010Os,Feltre-Ospedale,,46.021853,11.908009,5010
1079,5010,Feltre-Staz. Fs,,46.012749,11.910851,5010
1080,5010Rr,Feltre-Staz. Fs,,46.012491,11.910304,5010
1081,5020Rr,S.Lucia,,46.003297,11.840661,5020
1082,5030Rr,Arten,,46.008708,11.831534,5030
1083,5070Rr,Ponte Oltra,,46.060441,11.762556,5070
1085,5111Rr,Masi di Imer,,46.145367,11.786083,5111
1086,5111Sd,Masi di Imer-Str.Dismessa,,46.145815,11.786131,5111
1087,5110Rr,Imer,,46.150561,11.794517,5110
1088,5130Rr,Mezzano,,46.154450,11.806214,5130
1089,5130Sr,Mezzano-Alb.Salgetti,,46.156398,11.815198,5130
1090,5160Rr,Siror,,46.186854,11.830376,5160
1091,5180Rr,Impianti Tognola,,46.254564,11.800643,5180
1092,0961Cr,S.Martino di C.-H.Cristallo,,46.258584,11.802600,0961
1093,5117,Canal S.Bovo,,46.154983,11.733015,5117
1094,5117Sp,Canal S.Bovo-Somprà,,46.159542,11.727580,5117
1095,5122,Pianazzi Bivio,,46.162501,11.722351,5117
1096,5118,Ronco Fosse,,46.153340,11.719645,5118
1097,5118Co,Ronco-Bivio Pugnai,,46.149553,11.719951,5118
1098,5119Pi,Ronco-Bivio Gasperoi,,46.141878,11.717190,5119
1099,5119,Ronco Chiesa,,46.141561,11.714637,5119
1100,7016,Povo-Mesiano,,46.064870,11.142646,4005
1102,4270Fs,Caldonazzo-Staz. Fs,,45.997136,11.264702,4270
1103,4300Fs,Levico Terme-Staz. Fs,,46.005879,11.305009,4300
1104,4454Fs,Grigno-Staz. Fs,,46.015362,11.624995,4454
1105,4457Fs,Tezze-Staz. Fs,,45.990343,11.669923,4457
1106,4490Fs,Primolano-Staz. Fs,,45.965663,11.701313,4490
1107,4130,Susa',,46.051111,11.223539,4130
1108,0001No,Trento-C.So Tre Novembre,,46.062416,11.123713,0001
1109,0001Vv,Trento-Viale Verona,,46.056531,11.128456,0001
1110,0001Di,Trento-S.Bartolameo,,46.051661,11.129945,0001
1111,0001Qu,Trento Viale Verona Big Center,,46.045612,11.130966,0001
1112,0001Mn,Trento-Man,,46.036737,11.130338,0001
1113,3010Rc,Mattarello-Loc.Ronchi,,46.017259,11.132495,3010
1114,3010,Mattarello,,46.005283,11.126502,3010
1115,3020,Acquaviva,,45.989952,11.122780,3020
1116,3020Sf,Acquaviva-Pizzeria,,45.980673,11.116452,3020
1117,3030Nf,Besenello-Ferm. Nord,,45.945968,11.106163,3030
1118,3030,Besenello,,45.942137,11.109389,3030
1119,3030Sf,Besenello-Ferm. Sud,,45.937109,11.110678,3030
1120,3040,Calliano,,45.934198,11.095733,3040
1121,3040Ma,Calliano-Grafiche Manfrini,,45.928835,11.093172,3040
1122,3055,Castelpietra,,45.922967,11.092189,3055
1123,3070,Volano,,45.917920,11.063780,3070
1124,3080,S.Ilario,,45.908274,11.040552,3100
1125,3100Tn,Rovereto-V.Le Trento,,45.900157,11.041998,3100
1126,3100,Rovereto-Via Manzoni,,45.892473,11.038426,3100
1128,3100Hc,Rovereto-Difr.Rist.Cristina,,45.881366,11.031860,3100
1129,3290,Lizzanella,,45.874533,11.031686,3100
1130,3290Bv,Lizzanella-Bar Verona,,45.872773,11.024339,3100
1131,3300Sg,Centro Commerciale Millenium,,45.868790,11.014188,3100
1132,3542,Mori-Stazione F.S.,,45.861908,11.000683,3542
1133,3312,Ravazzone di Mori,,45.860092,10.991291,3312
1134,3320,Molina di Mori,,45.855210,10.985631,3320
1135,3310,Mori-Bar Centrale,,45.851605,10.978781,3310
1136,3310Sb,Mori-Bivio Sud,,45.853367,10.967981,3310
1137,3310Fa,Mori-Difr.Discoteca Fanum,,45.855035,10.946812,3460
1138,3460,Loppio,,45.855726,10.929794,3460
1139,3465,Passo S.Giovanni,,45.874042,10.906461,3465
1140,3470,Nago,,45.878476,10.890669,3470
1141,3480,Torbole,,45.871053,10.875512,3480
1142,3482,Linfano Bivio,,45.875583,10.871503,3480
1143,0960Hb,Riva V.Rovereto H.Brione,,45.880111,10.856036,0960
1144,0960Hd,Riva V.Rovereto H.Du Lac,,45.883055,10.852641,0960
1145,0960Cd,Riva Via D.Chiesa,,45.888706,10.846075,0960
1146,0960,Riva Del G.-Autostaz.,,45.892289,10.844892,0960
1147,0960Dr,Riva D/Garda Rione Degasperi,,45.895383,10.850061,0960
1148,0960Cc,Riva Del G. C.Comm. 2000,,45.896469,10.851309,0960
1149,3500,Riva Del G. S.Nazzaro,,45.899783,10.855660,0960
1150,3510,S.Tomaso-Direz. Arco,,45.902286,10.860011,3510
1151,3520Au,Arco S.Caterina Eurospar,,45.904792,10.864220,3520
1152,3520Bg,Arco Bivio Sp 36 Grazie,,45.906486,10.866327,3520
1153,3533,Arco Via S.Caterina,,45.912254,10.875211,3520
1154,3520,Arco-Autostaz.,,45.916113,10.883001,3520
1155,3520Lr,Arco Piazza Italia,,45.919566,10.891333,3520
1156,3529,Caneve,,45.916735,10.892204,3520
1157,3531,Bolognano Bivio,,45.910903,10.900309,3520
1158,3530,Bolognano,,45.912063,10.901986,3520
1159,3530Va,Bolognano Via Asilo,,45.914058,10.902196,3520
1160,3540,Massone Case Itea,,45.921813,10.899108,3520
1161,3540Se,Massone,,45.924014,10.898306,3520
1162,3540Sm,S.Martino di Arco,,45.924460,10.894775,3520
1163,3520Sv,Arco Svizzera,,45.921461,10.891616,3520
1164,3520Br,Arco Bivio Sp 36 Grazie,,45.906976,10.867143,3520
1165,3520Ar,Arco S.Caterina Eurospar,,45.904663,10.863891,3520
1166,3510Rr,S.Tomaso-Direz. Riva,,45.902908,10.861114,3510
1167,3500Rr,Riva Del G. S.Nazzaro,,45.899422,10.855184,0960
1168,0960Cr,Riva Del G. C.Comm. 2000,,45.897765,10.852435,0960
1169,0960Dg,Riva D/Garda Rione Degasperi,,45.894834,10.849462,0960
1170,0960Rv,Riva D/Garda Viale Martiri,,45.887604,10.844054,0960
1171,3470Rr,Nago,,45.878302,10.890542,3470
1172,3460Rr,Loppio,,45.855490,10.930108,3460
1173,3310Rr,Mori-Bar Centrale,,45.851608,10.978989,3310
1174,3320Rr,Molina di Mori,,45.855097,10.985453,3320
1175,3312Rr,Ravazzone di Mori,,45.858717,10.990649,3312
1177,3290Br,Lizzanella-Bar Verona,,45.872694,11.024273,3100
1178,3290Rr,Lizzanella,,45.874361,11.031758,3100
1179,3100Rc,Rovereto-Rist.Cristina,,45.881389,11.032067,3100
1180,3100Fr,Rovereto-Staz.F.S.,,45.890243,11.034030,3100
1181,3100Tr,Rovereto-V.Le Trento,,45.900353,11.042123,3100
1182,3080Rr,S.Ilario,,45.908367,11.040784,3100
1183,3070Rr,Volano,,45.917749,11.063577,3070
1184,3040Rr,Calliano,,45.934013,11.096002,3040
1185,3030Rr,Besenello,,45.941793,11.109991,3030
1186,3030Nr,Besenello-Ferm. Nord,,45.946015,11.106023,3030
1187,3010Rr,Mattarello,,46.005251,11.126637,3010
1188,0001Mr,Trento-Man,,46.037835,11.130486,0001
1189,0001Pc,Trento-Ponte Cavaleggeri,,46.059353,11.126297,0001
1190,0001Ro,Trento-Via Rosmini,,46.068218,11.118796,0001
1191,5141,Tonadico-Lisiera,,46.181183,11.841123,5140
1192,5141Cp,Tonadico-Centr.Castelpietra,,46.184630,11.845447,5140
1193,5154,Bivio Val Canali,,46.189613,11.861092,5154
1194,5142,Baita Del Vecio,,46.185473,11.873973,5142
1195,5143,Passo Cereda,,46.192986,11.905223,5143
1196,5144,Mis,,46.207137,11.927153,5144
1197,5144Bs,Mis di Mezzo,,46.205713,11.928996,5144
1198,5144Ch,Mis di Sotto,,46.203515,11.930098,5144
1199,5145,Sagron,,46.195002,11.943357,5145
1200,1221Zo,Bellamonte-Albergo Zaluna,,46.314589,11.647139,1221
1201,1221,Bellamonte,,46.312911,11.662986,1221
1202,1221Ht,Bellamonte-H.Torretta,,46.311058,11.674500,1221
1203,1222,Lago Forte Buso,,46.306909,11.701286,1222
1205,1223Cf,Paneveggio Centro Forestale,,46.309541,11.748096,1223
1206,1224Mj,Bivio Malga Juribello,,46.300119,11.763517,1224
1207,1224Ma,"Malga Rolle",,46.295816,11.776544,1224
1208,1224,Passo Rolle,,46.296305,11.787139,1224
1209,1224Sr,P.Sso Rolle-Segg. Segantini,,46.297907,11.788999,1224
1210,1224Mf,P.Sso Rolle-Malga Fosse,,46.289455,11.798580,1224
1211,0961Sm,S.Martino di C.-H. S.Martino,,46.266379,11.802413,0961
1212,0961Cv,S.Martino di C.-Im.Col Verde,,46.264917,11.804217,0961
1213,0961Bv,S.Martino di C.-H.Belvedere,,46.264314,11.801833,0961
1218,1223,Paneveggio,,46.306657,11.739067,1223
1224,5120Bc,Caoria-Bar Cauriol,,46.194858,11.680894,5120
1225,5120Pv,Caoria-Ponte Valsorda,,46.197164,11.678894,5120
1226,5120,Caoria,,46.198012,11.675734,5120
1227,5109Rr,Lausen,,46.149954,11.734824,5117
1229,5115,Bivio Prade,,46.151486,11.741642,5115
1230,5128,Berni,,46.156637,11.745893,5128
1231,5113,Prade,,46.157314,11.740539,5113
1232,5114,Cicona,,46.162906,11.744184,5114
1233,5116,Zortea,,46.162717,11.750159,5116
1234,5116Bm,Zortea-Loc. Mureri,,46.164872,11.757456,5116
1235,5127,Barbine,,46.157837,11.754333,5127
1236,5112Fm,P.Sso Gobbera-F.Mazuca,,46.150300,11.751120,5112
1237,5112,Passo Gobbera,,46.147663,11.758202,5112
1238,5112Rr,Passo Gobbera,,46.147632,11.757656,5112
1239,5117Rr,Canal S.Bovo,,46.154704,11.733040,5117
1240,5120Pr,Caoria-Ponte Valsorda,,46.197181,11.678532,5120
1242,1070Hc,Cavalese-Hotel Coronelle,,46.294815,11.454263,1070
1243,1160Gi,Daiano-Parco Giochi,,46.300106,11.450123,1160
1244,1160,Daiano,,46.300879,11.447872,1160
1245,1161Ca,Varena-Pizz. La Cantinetta,,46.302821,11.454024,1160
1246,1161Ct,Varena Centro-Alb. Alpino,,46.303567,11.456161,1160
1247,1161,Varena,,46.305514,11.458118,1160
1248,0001Sr,Trento-Via Valsugana,,46.069120,11.136319,0001
1249,4080Ex,Cirè-Ex Statale,,46.077164,11.207011,4015
1250,4114Mp,Roveda-Maso Puech Pote,,46.074384,11.287907,4114
1251,4114Ms,Roveda-Maso Sroveri,,46.069344,11.292393,4114
1252,4114,Roveda,,46.067989,11.298912,4114
1253,4114Tm,Roveda-Maso Tolleri,,46.069281,11.299101,4114
1254,4114Mm,Roveda-Maso Martinotti,,46.071815,11.304078,4114
1255,4114Mc,Roveda-Maso Stiopetteri C.,,46.071543,11.298769,4114
1256,4115Mf,Kamauz-Maso Frunt,,46.072812,11.301187,4115
1257,4115,Kamauz,,46.074718,11.302164,4115
1258,4112Sr,Canezza-Rist. Al Sole,,46.080110,11.275681,4112
1259,4400It,Borgo Vals.-Case Itea,,46.058762,11.469263,4400
1260,4461,Telve,,46.070437,11.477965,4461
1261,4461Bp,Telve-Panorama,,46.070379,11.483099,4461
1262,4461Bu,Telve-Via S.Giustina,,46.072891,11.484734,4461
1264,4461Sa,Telve-Salti,,46.073963,11.480759,4461
1265,4462,Ponte S.Giovanni,,46.075054,11.474240,4462
1266,4463,Telve di Sopra,,46.072006,11.472214,4463
1267,4465,Campestrini,,46.077688,11.456859,4465
1268,4464Bv,Torcegno-Segheria,,46.074770,11.451065,4464
1269,4464,Torcegno,,46.073038,11.450420,4464
1270,4440,Ronchi Valsugana,,46.072599,11.438554,4440
1271,4440Ma,Ronchi-Loc. Marchi,,46.066813,11.432584,4440
1272,4430St,Stauda,,46.063774,11.429672,4430
1273,4430,Montebello,,46.061208,11.425914,4430
1274,4422,Maso Roneri,,46.059241,11.420822,4420
1275,4420,Rincheri,,46.056603,11.416641,4420
1277,4550Br,Cinte Tesino Bivio,,46.067453,11.607539,4550
1457,1167,Ora-Auer,,46.348173,11.297324,1167
1458,2124,Maso Del Gobbo,,46.033816,10.947743,2124
1460,2132,Isoletta,,46.009174,10.935767,2132
1461,2153Mp,Marocche-Pescicoltura,,46.002236,10.926660,2153
1462,2153,Marocche,,45.998564,10.925295,2153
1463,2154,Gaggiolo,,45.993660,10.926532,2154
1464,2129,Centrale Fies,,45.986449,10.926882,2129
1465,2127Ag,Dro-Al Lago,,45.982597,10.925059,2129
1466,2127It,Dro Itea,,45.962453,10.915978,2127
1467,2127,Dro,,45.961474,10.910726,2127
1468,2127Fa,Dro-Carabinieri,,45.958516,10.906523,2127
1469,2128,Ceniga,,45.951387,10.900851,2128
1470,2128Bs,Ceniga Bivio Sud,,45.946609,10.902954,2128
1471,3520Mo,Arco Moletta,,45.931025,10.896185,3520
1472,4380Ch,Roncegno Chiesa,,46.049712,11.406684,4380
1474,2130,S.Martino di Arco,,45.923731,10.893138,3520
1475,1160Pr,Daiano-Via Arca I,,46.300319,11.445211,1160
1476,1160Se,Daiano-Via Arca Civ.20,,46.298112,11.444162,1160
1477,1150Ol,Carano,,46.292416,11.437238,1070
1478,1151Az,Masi-Az. Agricola,,46.281916,11.496317,1190
1479,1181,Lago di Tesero,,46.281974,11.515006,1190
1480,1181Mo,Lago-Mobilif. De Pal,,46.283985,11.521973,1190
1481,1190Bf,Tesero Bivio,,46.285506,11.523799,1190
1482,2131,Daino,,46.023309,10.943759,2125
1483,4025Mc,Baselga di Pinè-Monum.,,46.130951,11.246447,4025
1484,4040La,Miola,,46.126782,11.246524,4025
1485,4040,Miola-St. Ghiaccio,,46.125424,11.253586,4025
1486,4041Ba,Faida-Rauta,,46.112841,11.253843,4041
1487,4041,Faida,,46.109689,11.251616,4041
1490,1070Se,Cavalese-Autostaz.,,46.287912,11.463237,1070
1492,4134,Canzolino,,46.083701,11.221506,4134
1493,4134Hm,Canzolino-Hotel Miralago,,46.082622,11.230442,4134
1494,4134Bb,Canzolino-Bivio Buss,,46.084555,11.230766,4134
1495,4020,Riposo,,46.084493,11.236938,4020
1496,4042,Montagnaga,,46.098614,11.236071,4042
1497,4039,Valt,,46.106817,11.236568,4039
1498,4026Hs,Ferrari-Hotel Scoiattolo,,46.111813,11.234198,4026
1499,4026,Ferrari,,46.121678,11.239945,4026
1501,4040Bv,Miola-Bivio Ferrari/Miola,,46.124923,11.243146,4025
1502,1107Rr,Mazzanigo,,46.103797,11.188919,1105
1503,1105Rr,S.Agnese,,46.106121,11.183918,1105
1507,2181,Campo Lomaso,,46.024031,10.865607,2181
1508,2181Se,Campo Lomaso Ii,,46.021898,10.866744,2181
1509,2182,Vigo Lomaso,,46.013210,10.869079,2182
1510,2183,Dasindo,,46.011844,10.860407,2183
1511,2184,Stumiaga,,46.007007,10.849006,2184
1512,2185Ca,Fiavè-Caseificio,,46.001943,10.846004,2185
1514,2185Ba,Fiavè-Bar Aurora,,46.001174,10.840937,2185
1515,2187,Torbiera,,45.992446,10.838008,2187
1516,2185Pi,Fiavè Pineta,,45.988124,10.833076,2187
1517,2188,Ballino,,45.965503,10.811513,2188
1518,2189,Lago di Tenno,,45.935390,10.811879,2189
1519,2210,Ville Del Monte,,45.930259,10.822412,2210
1520,2210Ba,Ville Del Monte I,,45.927399,10.825673,2210
1521,2191,Tenno,,45.921139,10.831297,2191
1522,2191Ac,Tenno-Rist. Alla Croce,,45.918081,10.832840,2191
1523,2191Ap,Cologna-Alb.Panorama,,45.915367,10.847093,2191
1524,2192,Cologna,,45.914858,10.842365,2192
1525,2192Be,Cologna-Belvedere,,45.913960,10.841415,2192
1526,2193,Gavazzo,,45.912491,10.840954,2193
1528,0935Bt,Gardolo-Zona Ind.Le,,46.105316,11.100608,0935
1530,0001Os,Trento-Ospedale S.Chiara,,46.058154,11.132919,0001
1531,0001Or,Trento-Osp. S.Chiara,,46.058154,11.131198,0001
1532,0001Sc,Trento-Ospedale S.Camillo,,46.065482,11.131826,0001
1534,0001Pv,Trento-P.Zza Venezia,,46.067676,11.126902,0001
1535,0001Ba,Trento-Via Barbacovi,,46.064481,11.129758,0001
1536,0001Mb,Trento-Via M.Baldo,,46.057536,11.117437,0001
1538,2136,Varone Alberello,,45.907214,10.840333,2136
1539,2136Ba,Varone Via Ballino 14,,45.904369,10.842057,2136
1540,2136Sa,Varone-Sc.Alberghiera,,45.901978,10.844040,2136
1541,2228,Albola,,45.897666,10.844129,0960
1542,0960Vt,Riva D/Garda V.Le Dei Tigli 21,,45.892365,10.842948,0960
1544,2136Sr,Varone Sc.Alberghiera,,45.901569,10.844310,2136
1545,2136Cr,Varone Cascata,,45.911926,10.837202,2136
1546,2191Ar,Cologna-Alb.Panorama,,45.915416,10.847131,2191
1547,2188Rr,Ballino,,45.965776,10.811609,2188
1548,2187Rr,Torbiera,,45.992714,10.838523,2187
1549,2185Br,Fiavè-Bar Aurora,,46.001313,10.841014,2185
1550,2185Rr,Fiave',,46.004365,10.842042,2185
1551,2185Cr,Fiavè-Caseificio,,46.002206,10.845756,2185
1552,2184Rr,Stumiaga,,46.007379,10.849193,2184
1554,2182Rr,Vigo Lomaso,,46.013241,10.869090,2182
1555,2181Sr,Campo Lomaso Ii,,46.021557,10.866822,2181
1556,2181Rr,Campo Lomaso,,46.023680,10.865724,2181
1558,2195,Cares,,46.032891,10.863776,2195
1559,2196,Comighello,,46.030953,10.851467,2196
1560,2225,Sesto Bivio,,46.031422,10.846947,2225
1562,2197,Villa di Bleggio,,46.029307,10.841954,2197
1563,2198,Santa Croce,,46.024471,10.838769,2198
1564,2199,Madice,,46.023864,10.832003,2199
1565,2241,Marcè Bivio,,46.019261,10.823814,2241
1566,2200,Cavrasto,,46.017078,10.819855,2185
1567,2202,Balbido,,46.014968,10.811068,2202
1568,2201,Rango,,46.018187,10.811832,2201
1569,2207,Cavaione,,46.022570,10.819804,2207
1570,2204,Marazzone,,46.026893,10.820735,2208
1571,2203,Larido,,46.028690,10.823714,2208
1572,2208,Bivedo,,46.028738,10.826650,2208
1574,2292,Polin,,46.026824,10.720090,2292
1575,2293Un,Breguzzo-Loc. Petò,,46.018713,10.711183,2293
1576,2293Du,Breguzzo-Corè,,46.015355,10.707604,2293
1577,2293,Breguzzo,,46.009294,10.699435,2293
1579,2294,Bondo,,46.000242,10.692876,2294
1580,2295,Pra' di Bondo,,45.996292,10.690680,2295
1581,2295Fa,Prà di Bondo-Falegnameria,,45.990894,10.685662,2295
1582,2296,Roncone,,45.983562,10.670695,2296
1583,2297,Fontanedo,,45.979182,10.666827,2297
1584,2298,Lardaro,,45.969381,10.660893,2298
1585,2301,Forti di Lardaro,,45.962753,10.658039,2305
1586,2304,Strada,,45.944284,10.642772,2305
1587,2305,Pieve di Bono-Loc. Creto,,45.939249,10.638650,2305
1588,2302,Agrone,,45.954529,10.650079,2305
1589,2305Bo,Pieve di Bono-Tratt.Borel,,45.935769,10.639060,2305
1592,2309,Cologna di P.Bono,,45.931355,10.637450,2309
1593,2310Ce,Cimego-Centrale Enel,,45.924618,10.632708,2310
1594,2326,Ponte Cimego,,45.915356,10.621384,2310
1595,2310,Cimego,,45.911927,10.614400,2310
1596,2310Qa,Cimego-Loc.Quartinago,,45.910622,10.611835,2310
1597,2310Bp,Cimego-Bar Porte,,45.904469,10.608408,2310
1598,2311Ac,Condino-Alb.Condino,,45.891406,10.601560,2311
1599,2311,Condino,,45.889021,10.599610,2311
1600,2311Ci,Condino-Case Itea,,45.884992,10.596494,2311
1601,2311Ca,Condino-Cartiere,,45.880389,10.592588,2311
1602,2311Cp,Condino-Carpenteria,,45.874623,10.588411,2311
1605,2314,Storo,,45.848809,10.578087,2314
1606,2314Ai,Storo-Al Melograno,,45.850216,10.575210,2314
1608,2313Rr,Casa Rossa,,45.852440,10.565998,2314
1609,2320Sb,Darzo-Stork Club,,45.849192,10.559670,2320
1610,2320,Darzo,,45.841258,10.549742,2320
1611,2320Zi,Darzo-Zona Ind.Le,,45.834353,10.542857,2320
1612,2321,Lodrone,,45.829192,10.535456,2321
1613,2322,Ponte Caffaro Bivio,,45.825079,10.531114,2323
1614,2322Mo,Ponte Caffaro-Mobilif.,,45.820924,10.539249,2323
1615,2322Pe,Ponte Caffaro-Pescicoltura,,45.817692,10.544283,2323
1616,2323Vl,Baitoni-Via Lago,,45.810328,10.543379,2323
1617,2323,Baitoni,,45.808723,10.539588,2323
1618,2290Hr,Tione-Hotel Milano,,46.029118,10.723754,2290
1619,2292Rr,Polin,,46.026806,10.720064,2292
1620,2293Rr,Breguzzo,,46.009868,10.700202,2293
1621,2293Hr,Breguzzo-Hotel Carlone,,46.006364,10.697912,2293
1622,2294Rr,Bondo,,46.000001,10.692832,2294
1623,2295Rr,Prà di Bondo,,45.996469,10.690919,2295
1624,2296Rr,Roncone,,45.984559,10.672081,2296
1625,2297Rr,Fontanedo,,45.978898,10.666773,2297
1626,2298Rr,Lardaro,,45.969770,10.661090,2298
1627,2301Rr,Forti di Lardaro,,45.963004,10.658392,2305
1628,2302Rr,Agrone,,45.955368,10.650607,2305
1629,2304Rr,Strada,,45.944013,10.642640,2305
1630,2305Br,Pieve di Bono-Tratt.Borel,,45.935706,10.639071,2305
1631,2309Rr,Cologna di P.Bono,,45.931273,10.637534,2309
1632,2311Ar,Condino-Alb.Condino,,45.891388,10.601534,2311
1633,2311Rr,Condino-Albergo Corona.,,45.888994,10.599609,2311
1634,2311Cr,Condino-Case Itea,,45.885120,10.596701,2311
1635,2311Br,Condino-Cartiere,,45.880370,10.592622,2311
1637,2314Rr,Storo,,45.848889,10.578160,2314
1638,2320Rr,Darzo,,45.842292,10.550493,2320
1639,2320Zr,Darzo-Zona Ind.Le,,45.834080,10.542728,2320
1640,2321Rr,Lodrone,,45.829324,10.535700,2321
1641,2322Mr,Ponte Caffaro-Mobilif.,,45.821142,10.538882,2323
1643,2171,Poia,,46.028668,10.880072,2171
1645,2173,Comano,,46.034769,10.891022,2173
1646,2172Rr,Godenzo,,46.028860,10.883158,2173
1647,2171Rr,Poia,,46.028479,10.880067,2171
1648,2174,Lundo,,46.012779,10.884054,2174
1649,2211,Villa Banale,,46.046407,10.887193,2211
1650,2212Un,Premione-Via di Pestelan,,46.047643,10.880493,2212
1651,2212,Premione,,46.048273,10.874201,2212
1652,2213Se,Stenico-Scuola,,46.049860,10.856623,2213
1653,2213,Stenico,,46.051971,10.853879,2213
1655,2213Do,Stenico-Dologno,,46.053473,10.873476,2213
1656,2223,Dos Doa,,46.054273,10.897553,2211
1657,2214,Seo,,46.057110,10.872923,2214
1658,2215Un,Sclemo-Via Dei Caputel,,46.053790,10.879404,2215
1659,2215,Sclemo,,46.055964,10.884041,2215
1660,2216,Tavodo,,46.066323,10.892204,2216
1661,2216Sp,Tavodo-S.Provinciale,,46.064889,10.892129,2216
1662,2218,Dorsino,,46.073366,10.896859,2218
1663,2219,S.Lorenzo In Banale,,46.076504,10.907305,2219
1664,2219Ch,S.Lorenzo-Chiesa,,46.076672,10.909368,2219
1665,2220,Lago Nembia,,46.096096,10.932585,2220
1666,2220Ce,Lago Nembia-Casa Enel,,46.107358,10.943027,2220
1669,0956,Molveno-Centro,,46.142420,10.963759,0956
1670,0956Rr,Molveno-Lido Lago,,46.140431,10.963727,0956
1671,0956Dr,Molveno-Hotel Du Lac,,46.141236,10.965607,0956
1672,0956Gr,Molveno-Grand Hotel,,46.134919,10.970224,0956
1673,2220Cr,Lago Nembia,,46.095952,10.933324,2220
1674,2219Rr,S.Lorenzo In Banale,,46.076385,10.907682,2219
1675,2216Sr,Tavodo-Incr.S.P.,,46.064760,10.892034,2216
1676,2215Rr,Sclemo,,46.055896,10.884206,2215
1679,2223Rr,Dos Doa,,46.054075,10.897270,2211
1680,2213Dr,Stenico-Dologno,,46.053480,10.873597,2213
1681,2213Cr,Stenico-Case Nuove,,46.052309,10.861002,2213
1682,2213Rr,Stenico,,46.051868,10.853805,2213
1683,2212Rr,Premione,,46.048262,10.874064,2212
1688,2324,Castel Condino,,45.916322,10.602714,2324
1689,2303,Bersone,,45.944017,10.633506,2305
1690,2299,Praso,,45.949536,10.637414,2299
1691,2300,Daone,,45.947374,10.621184,2300
1692,4450Za,Castelnuovo-Zanzibar,,46.060200,11.490312,4450
1693,4405,Carzano,,46.069839,11.493617,4405
1695,4500St,Scurelle-Strettoia-Cartiera,,46.069067,11.498190,4500
1696,4520Cv,Strigno-Loc.Colle,,46.067461,11.516074,4448
1697,4448,Spera,,46.070410,11.508857,4448
1698,4520Cr,Strigno-Loc. Colle,,46.067492,11.515873,4448
1699,4497,Samone,,46.081220,11.521945,4497
1700,0960Vl,Riva Del G.-Bivio Val Ledro,,45.894756,10.842615,0960
1701,2163,Pregasina Bivio,,45.864433,10.812754,2163
1702,2160,Pregasina,,45.851215,10.824947,2160
1703,2142,Biacesa,,45.865050,10.805388,2142
1704,2143,Prè,,45.866333,10.788169,2143
1705,2162,Barcesino,,45.870893,10.781512,2162
1706,2144,Molina di Ledro,,45.871762,10.772216,2144
1707,2144Lg,Molina di Ledro-Lago,,45.873683,10.766712,2144
1708,2145,Mezzolago,,45.881040,10.750447,2145
1709,2146,Pieve di Ledro,,45.889293,10.730664,2146
1710,2147Vf,Bezzecca-Vigili Del Fuoco,,45.893204,10.723837,2147
1711,2147,Bezzecca-Scuole,,45.894714,10.720104,2147
1712,2148,Locca,,45.900381,10.725642,2147
1713,2149,Enguiso,,45.905795,10.729220,2147
1714,2150,Lenzumo,,45.912386,10.726404,2147
1715,2150Bt,Lenzumo-Bar Taverna,,45.913165,10.728461,2147
1716,2149Rr,Enguiso,,45.906001,10.729023,2147
1717,2148Rr,Locca,,45.900374,10.725557,2147
1719,2155Sl,Tiarno di Sotto-Bivio,,45.893015,10.705842,2155
1721,2155,Tiarno di Sotto,,45.893420,10.686731,2155
1722,2155Ga,Tiarno di Sotto-Garage,,45.892870,10.680696,2155
1723,2156Ca,Tiarno di Sopra-Cooperativa,,45.891308,10.674937,2156
1724,2156,Tiarno di Sopra,,45.889966,10.671907,2156
1726,2159,Ampola Agritur,,45.875782,10.658552,2159
1728,2314Cs,Storo Strada V.Di Ledro Civ.7,,45.846513,10.582364,2314
1729,2156Mr,Tiarno di Sopra-Mariani,,45.882813,10.666215,2156
1730,2156Rr,Tiarno di Sopra,,45.889993,10.671907,2156
1731,2145Rr,Mezzolago,,45.880746,10.750805,2145
1732,2144Lr,Molina di Ledro-Lago,,45.873879,10.766535,2144
1733,2144Rr,Molina di Ledro,,45.871873,10.771779,2144
1734,2162Rr,Barcesino,,45.871072,10.779830,2162
1735,2142Rr,Biacesa,,45.864939,10.804951,2142
1737,2059,Padergnone Bivio,,46.060261,10.992518,2090
1738,2048,Calavino,,46.045571,10.982813,2048
1739,2048Vb,Calavino-Via Battisti,,46.041420,10.982354,2048
1740,2060,Madruzzo Bivio,,46.033912,10.981413,2060
1741,2049Pi,Lasino-Pizzeria 4 Stagioni,,46.024861,10.981219,2049
1742,2049,Lasino-Piazza,,46.023488,10.983349,2049
1743,2050Be,Stravino-Loc.Berlonga,,46.007748,10.981171,2050
1744,2050,Stravino,,46.003193,10.980432,2050
1745,2051Te,Cavedine-Telsar S.P.A.,,45.997601,10.977441,2051
1746,2051,Cavedine,,45.993519,10.974624,2051
1747,2052,Brusino,,45.985835,10.975991,2052
1748,2051Ma,Cavedine-Loc.Mai,,45.984137,10.977893,2052
1750,2054,Vigo Cavedine,,45.978967,10.981220,2054
1752,2053,Vigo Cavedine Bivio,,45.978092,10.977703,2054
1753,2055Bv,Masi di Vigo Cavedine-Bivio,,45.972584,10.974060,2055
1754,2056,Luch,,45.965820,10.962328,2056
1755,2057,Drena,,45.971089,10.944498,2057
1756,2057La,Lavini di Dro,,45.972773,10.934374,2127
1757,2126,Centrale di Drena,,45.967117,10.928191,2127
1758,3520Ca,Arco Via Capitelli,,45.919119,10.880279,3520
1759,3520Os,Arco Ospedale,,45.918802,10.876025,3520
1760,2135,Chiarano,,45.918883,10.869412,3520
1761,2134,Vigne,,45.919724,10.865352,3520
1762,2133,Varignano,,45.918308,10.861655,3520
1764,2138,Ceole,,45.913916,10.857782,3520
1765,2137,Pasina Bivio,,45.905638,10.851485,2136
1766,3520Or,Arco Ospedale,,45.918839,10.875975,3520
1770,3010Fs,Mattarello-Ss 12,,46.010331,11.128951,3010
1771,3620Sp,Romagnano-Sp 131 Km 2,,46.009349,11.119329,3620
1772,3620Ss,Romagnano-Sp131 Km 1,,46.012418,11.106722,3620
1773,3620Cl,Romagnano-Cava Lonardi,,46.007832,11.107920,3620
1774,3620St,Romagnano-Sp 90 Km 20,,46.002046,11.104938,3620
1775,3640Mt,Aldeno-Maso Toricella,,45.991309,11.097816,3640
1776,3640Ci,Aldeno-Cimitero,,45.982519,11.092483,3640
1777,3640,Aldeno,,45.976958,11.091825,3640
1779,0001Ss,Trento-Via S.Severino Dif. 127,,46.051021,11.111590,0001
1780,3610Vp,Ravina-Via Del Ponte,,46.043359,11.112299,3610
1781,3610,Ravina Bivio,,46.037617,11.114124,3610
1782,3620,Romagnano Bivio,,46.014855,11.106841,3620
1783,3640Do,Aldeno-Loc. Dossi,,45.973211,11.085161,3640
1784,3640Lc,Aldeno-Loc. Ciausa,,45.975689,11.083537,3640
1785,3650,S. Giorgio di Cimone,,45.975507,11.079658,3650
1786,3671,Covelo di Cimone,,45.979308,11.070638,3670
1787,3671Co,Covelo-Fam Cooperativa,,45.978460,11.067762,3670
1788,3670Ba,Cimone-Loc. Battistoni,,45.977954,11.064839,3670
1789,3670,Cimone,,45.978318,11.066142,3670
1790,3670Pi,Cimone-Fraz. Pietra,,45.981118,11.068558,3680
1791,3680,Cimoneri,,45.984459,11.072224,3680
1792,3680Ga,Gazi,,45.983589,11.075235,3680
1793,3690Vn,Garniga Terme-Loc. Zobbio,,45.990055,11.083483,3690
1794,3690,Garniga Terme,,46.001406,11.085872,3690
1795,3690Pl,Garniga-Piazza Lago,,46.004809,11.085840,3690
1796,3695Ce,Garniga Vecchia-Case di Sotto,,46.012362,11.078792,3695
1798,3695,Garniga Vecchia,,46.013523,11.083563,3695
1799,3620Rr,Romagnano Bivio,,46.016038,11.107805,3620
1800,3610Rr,Ravina Bivio,,46.037512,11.114096,3610
1801,0001Bf,Trento-Tangenziale,,46.047755,11.113459,0001
1803,4120,Serso,,46.074833,11.253093,4120
1804,4121Vm,Viarago-Via Delle Miniere,,46.082000,11.268852,4112
1806,4121,Viarago,,46.079811,11.262169,4112
1807,0001Cm,Trento-V. S.Francesco,,46.067015,11.126396,0001
1808,0001Vi,Trento-Piazza Vicenza,,46.062177,11.132905,0001
1809,3700,Cernidor,,46.047591,11.135195,0001
1810,3710,S.Rocco,,46.035958,11.145676,3710
1811,3710Ma,S.Rocco-Maso,,46.026299,11.145982,3710
1812,3720,Pianizza,,46.016816,11.145076,3720
1813,3730,Valsorda,,46.007836,11.156884,3730
1814,3730Du,Valsorda "Loc. Brusafer",,46.006314,11.163593,3730
1815,3740Un,V.Vattaro Loc.Ca' De Ronc,,46.006518,11.170408,3740
1816,3740Du,V.Vattaro-Difr.Civ.10B,,46.005903,11.190843,3740
1817,3740,Vigolo Vattaro,,46.003942,11.195919,3740
1818,3750Ma,Bosentino-Loc.Mandola,,46.000565,11.216062,3740
1819,3750,Bosentino,,46.001470,11.223215,3740
1821,3740Ch,V.Vattaro-Stab.Chindet,,45.999034,11.205424,3740
1822,3760,Vattaro,,45.992588,11.218985,3760
1823,3760Du,Vattaro-Civ.80,,45.990023,11.218973,3760
1824,3791,Campregheri Bivio,,45.984608,11.232636,3791
1825,3770,Pian Dei Pradi,,45.979043,11.237369,3770
1826,3790,Centa,,45.969510,11.232842,3790
1827,3780,Centa Bivio,,45.967431,11.226834,3790
1828,3780Mc,Centa-Bivio M.Cioli,,45.963371,11.220885,3790
1829,3800,Menegoi,,45.952789,11.214272,3800
1830,3810,Fricca,,45.949416,11.209041,3810
1831,3820,Carbonare,,45.934439,11.226634,3820
1832,3830Ab,Nosellari-Alb. Al Bivio,,45.931381,11.244896,3830
1833,3830,Nosellari,,45.929510,11.249886,3830
1834,3830Da,Dazio,,45.928454,11.256435,3830
1835,3830Ps,Pra di Sopra,,45.930931,11.250611,3849
1836,3849,Lago di Lavarone,,45.933981,11.255937,3849
1837,3850Hl,Lavarone-Hotel Du Lac,,45.937766,11.255226,3850
1838,3850,Lavarone Chiesa,,45.941014,11.251668,3850
1839,3863,Lanzino,,45.947305,11.250762,3863
1840,3862,Stengheli,,45.949561,11.258659,3862
1841,3860,Bertoldi,,45.950404,11.263150,3860
1842,3861,Azzolini,,45.942711,11.265038,3861
1843,3851,Gionghi,,45.940720,11.269666,3851
1844,3870,Lavarone Cappella,,45.936708,11.275436,3870
1845,3878,Gasperi,,45.940596,11.276807,3878
1846,3880,Casanova,,45.941232,11.279663,3880
1847,3880Bm,Masetti Bivio,,45.954257,11.294440,3890
1848,3890,Monterovere,,45.960661,11.297383,3890
1849,3895Sp,Luserna-Sp.9,,45.924891,11.317933,3895
1850,3895,Luserna,,45.921652,11.324253,3895
1851,3830Rr,Nosellari,,45.929641,11.249472,3830
1852,3830Ar,Nosellari-Alb. Al Bivio,,45.931477,11.244823,3830
1853,0001Ml,Trento-Via Milano,,46.060801,11.127564,0001
1854,3792,Maso Uez,,45.972959,11.233215,3790
1856,4200Hm,S.Cristoforo-Ht.Meridiana,,46.039518,11.242431,4200
1857,4210,Ischia di Pergine,,46.033155,11.247724,4210
1858,4211Mr,Alberè-Maso Roveri,,46.031613,11.251900,4211
1859,4211,Alberè di Tenna,,46.029541,11.255653,4211
1860,4212Bs,Tenna-Bivio Pontara Serafini,,46.023291,11.261980,4212
1861,4212Sp,Tenna-Sp 16 Al Km 4,,46.017113,11.266271,4212
1863,4212,Tenna,,46.012780,11.266696,4212
1865,3100Vp,Rovereto-Via Paoli,,45.892694,11.040162,3100
1866,3100Vc,Rovereto-Via Craffonara,,45.886590,11.034169,3100
1867,3100Pd,Rovereto-Via Calcinari,,45.886539,11.044667,3100
1869,3100At,Rovereto-Ex Cartiera Ati,,45.887115,11.050652,3100
1870,3100Sc,Rovereto-Rist. S.Colombano,,45.885320,11.059868,3100
1871,3150,Trattoria Genovesa,,45.882615,11.062600,3150
1872,3151Sp,Toldo-Sp 50 Km 0.2 Balanzi,,45.877319,11.065784,3151
1874,3151,Toldo,,45.875509,11.068767,3151
1875,3151Au,Toldo-Loc. Auga,,45.874366,11.069823,3151
1876,3183,Moscheri,,45.868418,11.073189,3183
1877,3184,Clocchi,,45.866543,11.073862,3184
1878,3184Ba,Barde,,45.862598,11.075467,3153
1879,3153,Vignala,,45.861926,11.082476,3153
1880,3154,Boccaldo,,45.857706,11.085127,3154
1881,3154Al,Boccaldo Alta,,45.857139,11.088107,3154
1882,3154Bv,Giazzera Bivio,,45.861604,11.087086,3154
1883,3182,Pozza di Trambileno,,45.863266,11.085270,3154
1884,3154Ar,Boccaldo Alta,,45.857597,11.087987,3154
1885,3154Rr,Boccaldo R,,45.857758,11.085257,3154
1886,3155Vn,Vanza Vn,,45.854586,11.078518,3155
1888,3155,Vanza,,45.852886,11.077952,3155
1889,3155Dv,Vanza-Civ. 82,,45.851556,11.077387,3155
1890,3155Bv,Vanza-Bivio Pozzacchio,,45.846393,11.075715,3155
1891,3253,Pozzacchio,,45.835139,11.082507,3253
1895,3295,Lizzana,,45.866873,11.030681,3100
1896,3295Ro,Lizzana-Rovercenter,,45.864519,11.029207,3100
1897,3341La,Marco-Lavini,,45.854990,11.018110,3341
1900,3341Va,Marco-Via Varini,,45.836853,11.011000,3341
1902,3342,Serravalle,,45.809259,11.014916,3342
1905,3344Ca,Marani-Loc.Cumer,,45.785085,11.018484,3344
1910,3345,Pilcante Bivio,,45.762285,11.004922,3346
1913,3347Ca,Sdruzzinà-Loc.Campagnola,,45.742707,10.980734,3347
1914,3347,Sdruzzinà,,45.740832,10.977281,3347
1915,3358,Vò Sinistro,,45.735022,10.959229,3358
1916,3357,Sabbionara,,45.740019,10.957604,3349
1918,3350Cc,Avio-Carabinieri,,45.736955,10.946500,3350
1919,3350,Avio,,45.735490,10.942934,3350
1920,3350Cs,Avio-Cantina Sociale,,45.732037,10.938470,3350
1921,3350Vb,Avio-Via M.Baldo,,45.731593,10.934435,3350
1923,3350Zi,Avio-Zona Ind.Le,,45.730364,10.939478,3350
1924,3350Da,Avio-Loc.Dazio,,45.711912,10.926737,3350
1925,3351,Mama D'avio,,45.704726,10.921750,3351
1926,3351So,Mama D'avio di Sotto,,45.700323,10.919016,3351
1927,3352,Borghetto,,45.698581,10.926962,3352
1928,3352Ca,Borghetto-Cavalcaferr.,,45.699086,10.928925,3352
1929,3353,S.Leonardo,,45.704662,10.930990,3353
1930,3354,Masi D'avio,,45.712332,10.936854,3354
1931,3100Cv,Rovereto-Via Cavour,,45.887281,11.034552,3100
1933,3040Bv,Calliano-Bivio Folgaria,,45.933179,11.096306,3040
1934,3041,Dietrobeseno,,45.927046,11.118484,3041
1935,3042So,Mezzomonte di Sotto,,45.916957,11.134879,3042
1936,3042,Mezzomonte,,45.916422,11.138921,3042
1937,3043,Peneri,,45.918996,11.145347,3043
1938,3044,Carpeneda,,45.912806,11.157002,3044
1939,3045Ob,Folgaria-Ortofr.Bolognani,,45.918964,11.157834,3045
1940,3045Ap,Folgaria-Via 25 Aprile,,45.918634,11.162222,3045
1941,3045Pg,Folgaria-Via Battisti,,45.917297,11.166765,3045
1943,3048Ga,Costa-Hotel Garden,,45.918747,11.186274,3048
1944,3048,Costa di Folgaria,,45.920179,11.188639,3048
1945,3048Bn,Bivio Nocchi,,45.919068,11.198434,3048
1946,3054,Passo Del Sommo,,45.919566,11.205947,3054
1947,3049,S.Sebastiano,,45.925010,11.212057,3049
1948,3049Ca,S.Sebastiano-Sez.Cacciatori,,45.925469,11.214887,3049
1949,3049Bc,Bivio Cueli,,45.923764,11.216204,3049
1950,3053,Morganti,,45.929359,11.221272,3053
1951,3053Rr,Morganti,,45.929174,11.220992,3053
1952,3048Gr,Costa-Difr.Garden Hotel,,45.918768,11.186158,3048
1954,3048Rr,Costa di Folgaria,,45.920368,11.189059,3048
1956,3040Br,Calliano-Bivio Folgaria,,45.933019,11.096720,3040
1958,3101,Villa Lagarina-A22,,45.914606,11.033873,3101
1959,3101Cc,Villa Lagarina-Carabinieri,,45.916303,11.034064,3101
1960,3102,Piazzo di Villa Lagarina,,45.922241,11.033966,3102
1961,3103,Pomarolo,,45.926259,11.042605,3103
1962,3103Vp,Pomarolo-Chiesa,,45.926405,11.045615,3103
1963,3104,Chiusole,,45.925420,11.053260,3104
1964,3105,Nomi,,45.928721,11.072323,3105
1965,3105Ri,Nomi-Casa di Riposo,,45.927985,11.076155,3105
1967,3100Vb,Rovereto-Via Bellavista,,45.890920,11.047005,3100
1968,3201Ca,Campolongo-Noriglio,,45.887004,11.063812,3201
1969,3201,Noriglio,,45.884541,11.069559,3201
1970,3201Be,Noriglio-Beccachè,,45.882075,11.071791,3201
1971,3198,Costa di Noriglio,,45.884272,11.072990,3198
1972,3207Sp,Valgrande-Sp 3 Km 8,,45.877090,11.105903,3207
1973,3207,Valgrande,,45.878839,11.111133,3207
1974,3208Vn,Valduga-Prima,,45.876701,11.124251,3208
1976,3208,Valduga,,45.877809,11.129783,3208
1977,3222,Pedrazzi,,45.878152,11.142222,3222
1978,3226,Peltreri,,45.878740,11.148788,3226
1979,3209,Piazza di Terragnolo,,45.878928,11.152416,3209
1980,3225,Dosso,,45.877625,11.155665,3215
1981,3215,Puechem,,45.877317,11.157882,3215
1982,3224,Camperi,,45.874842,11.162644,3215
1983,3223Un,Baisi-Prima,,45.867655,11.180365,3223
1985,3223,Baisi,,45.867812,11.182548,3223
1986,3210Zz,Zoreri,,45.866337,11.184371,3210
1987,3210,Zoreri-Soldati,,45.864869,11.190060,3210
1988,3219,Costa di Terragnolo,,45.880792,11.148055,3219
1989,3219Ca,Castello,,45.880834,11.141527,3219
1990,3197,Potrich Bivio,,45.883305,11.123673,3197
1991,3212Un,Scottini-Prima,,45.884471,11.129213,3212
1992,3212,Scottini,,45.883890,11.135235,3212
1993,3047,Serrada,,45.890915,11.154072,3047
1994,3047Bf,Serrada-Bivio Fondogrande,,45.896171,11.155748,3047
1995,3046,Mezzaselva,,45.906007,11.173589,3046
1997,3045Bs,Folgaria-Rotatoria,,45.913038,11.178088,3045
1998,3047Rr,Serrada,,45.891049,11.154039,3047
1999,3302,Mori-Terranera,,45.847885,10.983642,3310
2000,3363,S.Cecilia,,45.823141,10.998179,3363
2001,3362Cc,Chizzola-Cava Cipriani,,45.819120,11.000156,3362
2002,3362Sp,Chizzola-Sp. 90 Km 16.8,,45.817738,11.003965,3362
2003,3362Eu,Chizzola-Euromobili,,45.813498,11.008311,3362
2004,3362,Chizzola,,45.809175,11.008767,3362
2005,3364,Villetta,,45.807112,11.009864,3364
2006,3356,S.Lucia di Ala,,45.797365,11.015412,3356
2007,3367Ca,Pilcante-Capitelli,,45.772609,11.001559,3346
2008,3367Sc,Pilcante-Scuole,,45.770486,11.001247,3346
2009,3367,Pilcante,,45.767191,11.000764,3346
2010,3340,Campagnola,,45.757938,10.992038,3340
2011,3349Ca,Sabbionara-Casello Autostr.,,45.746871,10.976755,3349
2013,3405Bc,Cornè-Bivio Saccone,,45.810939,10.980437,3405
2014,3405Fc,Cornè-Fam.Coop,,45.807942,10.971566,3405
2015,3405,Corne',,45.808169,10.970922,3405
2018,3367Cv,Pilcante-Cave,,45.778359,11.002675,3346
2019,3100Vd,Rovereto-Via Dante,,45.885868,11.040363,3100
2020,3100Vh,Rovereto-Viale Schio Civ. 19,,45.883683,11.043476,3100
2021,3100Vz,Rovereto-Via Zugna Civ. 13,,45.884371,11.046558,3100
2022,3230,Bivio Porte di Trambileno,,45.883259,11.051312,3230
2023,3230Do,Dosso di Trambileno,,45.880222,11.051101,3230
2024,3231Si,Sich,,45.873857,11.058117,3230
2025,3231,Albaredo,,45.855995,11.061134,3231
2026,3232,Foppiano,,45.842063,11.061812,3232
2027,3233,Zanolli,,45.822792,11.070762,3233
2028,3234,Matassone,,45.815852,11.078229,3234
2029,3235,Aste,,45.790383,11.095312,3162
2030,3236,Cumerlotti,,45.787134,11.101382,3236
2031,3237,Riva di Vallarsa,,45.779570,11.105236,3237
2032,3238,Bruni,,45.776691,11.107624,3238
2033,3243,Geche,,45.769336,11.115939,3243
2034,3239,Obra di Vallarsa,,45.764916,11.116504,3239
2035,3240,Ometto,,45.759715,11.118827,3240
2036,3100Sm,Rovereto-S.Maria,,45.883632,11.040799,3100
2060,3157,Vanza Bivio,,45.850946,11.073051,3155
2061,3158,Pozzacchio Bivio,,45.844983,11.074256,3155
2062,3159,Valmorbia,,45.818618,11.091659,3159
2063,3159Bd,Valmorbia-Bivio Dosso,,45.816939,11.094622,3159
2064,3160,Zocchio,,45.809064,11.096515,3160
2065,3161Fc,Anghebeni-Fam.Coop,,45.796466,11.105436,3162
2066,3149,Arlanch,,45.790988,11.102064,3162
2067,3162,S.Anna di Vallarsa,,45.794758,11.096737,3162
2068,3149Rr,Arlanch,,45.791126,11.101786,3162
2069,3161,Anghebeni,,45.794140,11.107317,3162
2070,3163,Foxi,,45.789794,11.111886,3163
2071,3163Pr,Foxi-Loc.Prugnele,,45.787188,11.109190,3163
2072,3164Co,Raossi-Loc.Corte,,45.782482,11.114263,3164
2073,3164,Raossi,,45.782692,11.118682,3164
2074,3171,Speccheri Bivio,,45.781151,11.124399,3167
2075,3167,Parrocchia di Vallarsa,,45.776986,11.123302,3167
2076,3168Un,Piano,,45.773237,11.131268,3167
2077,3168,Piano di Vallarsa,,45.771493,11.135679,3167
2078,3170,Streva,,45.762476,11.161870,3166
2079,3169,Pian Delle Fugazze,,45.760391,11.172669,3166
2084,3156,Spino,,45.860265,11.074844,3156
2085,3165,Speccheri,,45.765508,11.129886,3165
2086,3166Se,Camposilvano Ii,,45.758239,11.144360,3166
2087,3166,Camposilvano,,45.760188,11.144107,3166
2099,3389,Ronzo Chienis,,45.891087,10.951842,3389
2100,3389Vl,Ronzo Chienis-Via Longa,,45.888625,10.948741,3389
2101,3389Cf,Ronzo Chienis-Cons.Ortofrutta,,45.886909,10.946662,3389
2102,3385,Varano,,45.881318,10.938412,3385
2103,3384,Pannone,,45.877265,10.934161,3384
2105,3383,Nomesino,,45.865456,10.962700,3381
2106,3382,Manzano,,45.866737,10.953611,3381
2107,3381,Valle S.Felice,,45.868989,10.938219,3381
2108,3460Bl,Loppio-Bivio,,45.855770,10.932164,3460
2123,3450Vb,Tierno-Via G.Battisti,,45.847789,10.978015,3310
2124,3450,Tierno,,45.845531,10.977544,3310
2125,3401,Besagno,,45.837659,10.969125,3401
2126,3402,Castione,,45.837801,10.953532,3407
2127,3407Pa,Brentonico-Ferramenta,,45.819440,10.958237,3407
2128,3407,Brentonico,,45.817937,10.956112,3407
2129,3406,Fontechel,,45.816501,10.948274,3407
2130,3406Bg,Fontechel-Bivio S.Giacomo,,45.814087,10.945968,3407
2131,3411,Prada,,45.801037,10.955919,3411
2132,3412Bu,Saccone-Loc. Al Bus,,45.796067,10.965987,3412
2133,3412,Saccone,,45.795393,10.974289,3412
2134,3415,Crosano Bivio,,45.821314,10.967065,3407
2135,3407Mo,Brentonico-Mobil.Zoller,,45.822387,10.962756,3407
2136,3413,Sorne,,45.808236,10.953404,3413
2137,3414,Cazzano,,45.816981,10.969311,3407
2138,3403Se,Crosano-Via S.Biagio 25/27,,45.818934,10.975083,3407
2141,3403,Crosano-Fam. Coop.,,45.820049,10.975655,3407
2142,3403Un,Crosano-Via Mazzini,,45.820615,10.970804,3407
2145,3405Un,Cornè Loc. Gai,,45.808687,10.967860,3405
2151,1410,Passo Fedaia,,46.453831,11.887760,1410
2154,2670Rf,Lagolo-Rifugio,,46.041468,11.004883,2670
2155,2670,Lagolo-Capolinea,,46.037318,11.002885,2670
2156,1190Vm,Tesero-Via Mulini,,46.296355,11.506062,1190
2157,1190Pe,Tesero-Loc. Pesa,,46.305819,11.504988,1190
2158,1182Ch,Stava-Chiesetta,,46.310264,11.505074,1182
2159,1182,Stava,,46.315421,11.503413,1182
2160,1182Hs,Stava-Hotel Sandrani,,46.320987,11.502080,1182
2161,1192Hs,Pampeago-Hotel Scoiattolo,,46.340594,11.537717,1192
2162,1192,Alpe Pampeago,,46.342026,11.540499,1192
2163,1161Va,Varena-Via Alpini-Dir.Lavazè,,46.307730,11.460137,1160
2164,1159,Bancoline-Rist. La Baita,,46.314227,11.471471,1160
2165,1162,Chiusa,,46.320669,11.483570,1162
2166,1163,Stava-Bivio,,46.327234,11.483815,1182
2167,1164,Passo Lavaze',,46.354514,11.492191,1164
2169,1165,Passo Oclini,,46.347373,11.453588,1165
2171,1400,Pian Trevisan-Bar El Cosinat,,46.461329,11.828179,1400
2172,1400Pt,Pian Trevisan-Bivio,,46.462003,11.832761,1400
2173,1420,Lago Fedaia,,46.463978,11.862028,1420
2174,1100Sr,Civezzano-Quadrivio ,,46.089186,11.185616,1100
2175,5150,Lago Welsperg,,46.194066,11.866568,5153
2176,5153,Villa Welsperg,,46.198461,11.867172,5153
2177,5155,Piereni,,46.206161,11.871268,5153
2178,5147,Val Canali,,46.217647,11.877650,5153
2180,5116Al,Albergo Lozen,,46.175310,11.777620,5121
2181,5121,Lago Calaita,,46.201781,11.792384,5121
2187,3100Ss,Rovereto-Fs Sud,,45.890320,11.034004,3100
2193,1100Ox,Civezzano-Oxford,,46.092559,11.179566,1100
2194,3840,Virti,,45.945491,11.238625,3850
2204,4331,Vetriolo Terme,,46.041895,11.317075,4331
2205,4300Te,Terme di Levico,,46.014141,11.296811,4300
2206,4332,Baiti di Vetriolo,,46.029555,11.333595,4332
2207,4331Rc,Ristorante Cacciatore,,46.031893,11.341919,4332
2208,4330,Compet,,46.039356,11.299900,4331
2210,4290Bv,Visintainer Bivio,,46.032037,11.267098,4290
2211,4136,Falesina,,46.071004,11.277772,4136
2212,4511,Ivano Fracena,,46.057114,11.528163,4511
2213,0001Bz,Trento-Via Bezzi,,46.058466,11.119270,0001
2214,4322,Loc. Lochere,,45.989030,11.301001,4322
2215,4321,Quaere,,45.991113,11.303016,4321
2216,4321Bl,Lochere Bivio Quaere,,45.991197,11.300217,4322
2217,1220Pi,Predazzo-Piscina Com.,,46.311470,11.615521,1220
2218,4050Im,Bedollo-Inc.Osvaldo/Martinati,,46.165825,11.298951,4050
2219,4050So,Bedollo-Via S.Osvaldo 26,,46.166497,11.300800,4050
2220,4050Op,Bedollo-Inc.Via S.Osvaldo/Pec,,46.168357,11.302237,4050
2221,1128Cv,Barcatta-Civico 31,,46.251160,11.350430,1128
2223,4320Cc,S.Giuliana-Via Delle Fonti 2,,45.989483,11.311520,4320
2226,5130Sc,Fiera di Primiero,,46.162679,11.818537,5130
2227,5140Ca,Fiera di Primiero,,46.172235,11.823741,5140
2228,5140Mo,Molaren,,46.168000,11.820299,5140
2229,5130In,Mezzano-Casa Ina,,46.156450,11.807987,5130
2230,5146Ab,Transacqua-Albergo Belvedere,,46.177762,11.837163,5140
2231,5146,Transacqua-Piazza S.Marco,,46.174804,11.833422,5140
2232,5146Is,Transacqua-Isolabella,,46.175236,11.831617,5140
2234,5141Tp,Tonadico-3 Ponti,,46.179984,11.837951,5140
2236,4128,S.Caterina di Pergine,,46.017255,11.227013,4250
2241,2650Ro,Rocce Rosse,,46.031915,11.045708,2650
2242,3100Cr,Rov.-C.Rosmini Pt,,45.891069,11.041276,3100
2243,3100Ce,Rovereto-Via Vannetti,,45.890246,11.035597,3100
2244,3100Mo,Rovereto-C.Rosmini-Monumento,,45.890842,11.043033,3100
2246,1078Cr,Cembra-Cimitero,,46.174568,11.217545,1078
2247,1106Mj,Bosco-Maso Jobstraibizer,,46.113245,11.179416,1106
2248,3520Sr,Arco-Svizzera,,45.921147,10.891383,3520
2250,3533Rr,Arco Via S.Caterina,,45.912519,10.875504,3520
2252,4143,Hacleri,,46.124459,11.339734,4143
2253,2221,Calvola,,45.926490,10.831529,2221
2254,3640Mc,Aldeno-Maso Canova,,45.964223,11.092597,3640
2255,5170Rd,Valmesta Bivio Rif.Dismoni,,46.222916,11.808835,5170
2256,4520Co,Strigno-Via Roma,,46.063333,11.523678,4520
2257,4137Mr,Roncogno--Maso Raot,,46.067440,11.209973,4137
2258,4111Po,Zivignago-Al Ponte,,46.072253,11.261136,4111
2259,4121Mo,Viarago-Via Montegian,,46.079285,11.259876,4112
2260,1224Ve,Passo Rolle-Albergo Venezia,,46.296223,11.782408,1224
2261,4282,Zava,,46.042112,11.251018,4282
2263,4280Ce,Masetti-Paese,,46.051334,11.248911,4280
2264,3080St,Ss.12 S.Ilario/Via Stroperi,,45.913228,11.044675,3100
2265,2021Cs,Terlago-Centro Sportivo,,46.088960,11.047688,2021
2266,2650Sp,Vason-Sp85 Al Km 17,,46.042742,11.061772,2650
2267,2021Fs,Terlago-Via Fies,,46.099087,11.042564,2021
2268,2023Bo,Monte Terlago-Loc. Boccari,,46.107772,11.033516,2023
2269,2470Po,S.Antonio di Mav.-Loc. Pozze,,46.183791,10.777007,2470
2271,2200It,Cavrasto Itea,,46.018633,10.818609,2185
2273,2202Se,Balbido-Scuole,,46.016040,10.815917,2202
2274,2180Sp,Ponte Arche Sp5 Civ. 1,,46.035110,10.868135,2180
2278,2053Sp,Vigo Cavedine-Sp84,,45.977989,10.976708,2054
2279,2056Bp,Luch-Bivio Con Via Del Ponte,,45.969281,10.968598,2056
2280,2031,Baselga Del Bondone,,46.078317,11.046923,2030
2281,3030Po,Besenello-Posta Vecchia,,45.951292,11.108365,3030
2283,2670Pn,Lagolo Sp85 Km. 23.5,,46.035397,11.022798,2670
2286,2149Vb,Enguiso Via Del Bo' Civ. 2,,45.909557,10.728931,2147
2287,2147Eu,Bezzecca-Eurospin,,45.895357,10.715058,2147
2288,2155De,Tiarno di Sotto Loc. Degara,,45.892989,10.690920,2155
2289,2321Hc,Lodrone-Hotel Castel Lodrone,,45.830957,10.539451,2321
2290,2250Cr,Ragoli "Croce",,46.054826,10.781590,2240
2291,2303Ca,Bersone-Capolinea,,45.946322,10.632473,2305
2292,2299Sv,Praso-Loc. Sevror,,45.953886,10.641928,2299
2293,0956Ci,Molveno-Cimitero,,46.141389,10.965587,0956
2295,0960Bc,Brione Case Itea,,45.879611,10.859099,0960
2296,0960Bo,Brione H.Orchidea,,45.884339,10.862801,0960
2297,3532,S.Alessandro,,45.888068,10.862062,0960
2299,3532Vr,S.Alessandro Via Rovigo,,45.886952,10.858210,0960
2300,3532Ca,S.Alessandro Cartiera,,45.887068,10.855456,0960
2301,3521Gr,S.Giorgio La Grotta,,45.893713,10.860859,3520
2302,3521,S.Giorgio,,45.898584,10.867403,3520
2303,3521Sp,S.Giorgio Incr.V.Sabbioni,,45.900713,10.870375,3520
2304,3521Ar,S.Giorgio Zona Artigianale,,45.904914,10.874925,3520
2305,3521Vm,S.Giorgio Incr. Circonvall.,,45.908116,10.877805,3520
2306,3520Mb,Arco Via Mantova 1,,45.909906,10.879503,3520
2307,3520Ma,Arco Via Mantova 21,,45.912913,10.882712,3520
2308,3520Vm,Arco Via Monache Poste,,45.916064,10.884856,3520
2309,2136Sg,Varone Via Venezia/Sega,,45.908163,10.845083,2136
2310,2136Vv,Varone Via Venezia/Ferrari,,45.908613,10.842274,2136
2315,2290Is,Tione-Istituto,,46.034811,10.728764,2290
2316,3300Sa,Ss. 240-Stab. Sasib,,45.870294,11.016687,3100
2317,3239Cv,Obra di Vallarsa Civ. 13,,45.766710,11.114411,3239
2318,3151Er,Eremo di S. Colombano,,45.878686,11.063386,3150
2319,3100Li,Rovereto-Via Barattieri,,45.896492,11.040687,3100
2320,2289,Tione Ospedale Civile,,46.043032,10.724962,2290
2321,3534,Vignole,,45.908948,10.901506,3520
2322,3540Ig,Massone Inc.Via Gazzoletti,,45.916854,10.901286,3520
2324,3720We,Pianizza Ii,,46.012192,11.147856,3720
2326,3760Mf,Vattaro-Maso Fosina,,45.997039,11.211763,3760
2327,3791Km,Ss.349 Al Km. 15,,45.989043,11.222359,3760
2329,3405Lo,Cornè-Loc. Lodrone,,45.805623,10.974985,3405
2330,3406La,Loc. Landrom Civ. 1,,45.805458,10.941042,3407
2331,3416Sa,Cornè Loc. Cave,,45.809262,10.981073,3405
2332,3416Cv,Cornè Loc. Cave Ii,,45.808106,10.981856,3405
2333,3381Pi,Piantino,,45.860713,10.937412,3381
2334,3381Ci,Valle S.Felice-Cimitero,,45.867974,10.939727,3381
2336,3389Bo,Ronzo Chienis-Via Bordala,,45.892389,10.953621,3389
2338,4042Al,Montagnaga "Villa Alpina",,46.101490,11.236265,4042
2340,5143Mv,Passo Cereda-Maso Vaietta,,46.197435,11.918313,5143
2342,2122,Pergolese,,46.026608,10.959251,2122
2343,2055,Masi di Vigo Cavedine,,45.965319,10.973622,2055
2344,2308,Por,,45.938517,10.648236,2308
2345,3101Ma,Villa Lagarina-Via Magrè,,45.917603,11.033513,3101
2346,3103Pi,Pomarolo-Via Del Pionte,,45.925171,11.048059,3103
2349,3185,Bastianello,,45.762873,11.127614,3165
2350,3187,Pezzati,,45.764686,11.126436,3165
2351,5260,Agordo-Luxottica,,46.284248,12.021344,5260
2352,3677,Vigile,,45.973218,11.057989,3680
2353,3681,Costa di Cimone,,45.978262,11.060241,3680
2354,3676,Finestrella,,45.980687,11.061054,3680
2355,3675,Pietra di Cimone,,45.981134,11.063692,3680
2356,3051,Guardia di Folgaria,,45.907383,11.132643,3051
2357,5140Ro,Rosetta,,46.181863,11.831854,5140
2358,4048Vt,Regnana Via Dei Tamagi,,46.158144,11.303494,4048
2359,4570Vf,Pieve Tesino Vigili Del Fuoco,,46.066538,11.615642,4550
2362,4300Va,Levico T.-Inc. Via Delle Alte,,46.017559,11.341849,4300
2363,4382,Gionzeri,,46.057249,11.409701,4382
2364,4520Me,Strigno,,46.066556,11.523254,4520
2365,4448Ca,Spera-Capolinea.,,46.075035,11.506866,4448
2367,4467Pa,Villa-Solo Dir. Strigno Fs,,46.056889,11.519595,4449
2368,1020,Cadino,,46.217404,11.153411,1020
2371,2621Lv,Sopramonte Sp85 Loc. La Valle,,46.075881,11.056030,2621
2372,2621Sp,Sopramonte Sp 85,,46.075775,11.058709,2621
2373,2621,Sopramonte,,46.071315,11.059208,2621
2374,2621Mb,Maso Banal,,46.069074,11.063408,2621
2376,1070Os,Cavalese-Ospedale,,46.289132,11.454838,1070
2377,1227,Falcade Bivio Passo Valles,,46.360072,11.844299,1227
2378,1164Mv,Passo Lavazè,,46.352293,11.484106,1164
2379,0961Vp,S.Martino di C.-Ex V.Pisoni,,46.277777,11.798406,0961
2380,0001Pi,Trento Via Piave,,46.062106,11.125369,0001
2381,0001Va,Trento-Via Ambrosi,,46.076700,11.123223,0001
2382,2430Vp,Caderzone Bivio Con Via Pozze,,46.124768,10.754291,2430
2383,1077Cr,Lisignago-Casa di Riposo,,46.161789,11.198439,1077
2384,1139,Caloneghi,,46.198208,11.318204,1121
2385,6300,Male',,46.353568,10.916865,6300
2386,6290Bv,Terzolas-Bivio Val di Rabbi,,46.358215,10.917237,6321
2387,6321Bv,Magras-Bivio,,46.360122,10.912466,6321
2388,6321,Magras-Loc. Molini,,46.366694,10.891517,6321
2389,6322Sd,Pracorno-Sud,,46.370048,10.883505,6322
2390,6322,Pracorno,,46.373171,10.878309,6322
2391,6322Bp,Pracorno Bivio Pozze,,46.378808,10.869665,6322
2392,6323,Tasse',,46.390586,10.860429,6323
2393,6323No,Tassè Nord,,46.394024,10.856873,6323
2394,6324Sd,S.Bernardo Sud,,46.398432,10.849463,6324
2395,6324,S.Bernardo,,46.401240,10.845317,6324
2396,6325,Piazzola Bivio,,46.406018,10.828573,6327
2397,6327Ca,Casna,,46.406059,10.831614,6327
2398,6327Pe,Penasa-Bivio,,46.406915,10.832112,6327
2399,6327Ni,Nistella,,46.408996,10.828337,6327
2400,6327Cr,Crespion,,46.410259,10.823660,6327
2401,6327,Piazzola,,46.410436,10.817919,6327
2402,6327No,Piazzola-Nord,,46.409742,10.814025,6327
2403,6328Sd,Somrabbi-Sud,,46.409815,10.810178,6328
2405,6328Mi,Somrabbi-Misseroni,,46.409866,10.803284,6328
2406,6328,Somrabbi,,46.410071,10.800285,6328
2407,6326Sd,Rabbi Bagni-Sud,,46.407767,10.811438,6327
2408,6326Bs,Rabbi Bagni-Bar Stella,,46.407756,10.813272,6327
2409,6326,Rabbi Bagni,,46.407620,10.808739,6327
2410,6327Mn,Masnuovo,,46.407370,10.824474,6327
2411,6300No,Male' Nord,,46.350062,10.909675,6300
2414,6320Su,Monclassico Sud,,46.335934,10.893306,6320
2415,6320,Monclassico,,46.333268,10.888506,6320
2416,6330,Presson,,46.332437,10.879967,6340
2417,6340Bv,Dimaro Bivio,,46.327363,10.872176,6340
2418,6340,Dimaro,,46.325736,10.874813,6340
2419,6340Mb,Maso Bonetei,,46.320999,10.872238,6340
2420,6341,Costa Rotian,,46.317748,10.867682,6341
2421,6342,Folgarida,,46.305592,10.863346,6342
2422,6342Su,Sun Valley,,46.304640,10.867093,6342
2423,6343,Belvedere,,46.297442,10.867492,6343
2424,6344,Genziana,,46.260118,10.854862,6344
2426,0001Tm,Trento-Staz. Ftm,,46.07439,11.12080,0001
2427,6220,Cles-Autostazione,,46.364609,11.038663,6220
2429,6301,Mangiasa,,46.350219,10.899069,6301
2430,6387,Claiano Bivio,,46.312711,10.776897,6386
2431,6386,Pellizzano,,46.311377,10.757834,6386
2432,6388Sd,Termenago Sud,,46.315408,10.764912,6388
2433,6388,Termenago,,46.316573,10.765807,6388
2434,6389,Castello di Pellizzano,,46.321750,10.774400,6389
2435,6390,Ortisè,,46.326213,10.784864,6390
2436,6391,Menas,,46.328403,10.786377,6391
2437,6302,Bolentina,,46.344185,10.883605,6302
2438,6303,Montes,,46.340465,10.875564,6302
2440,6340Pt,Dimaro-Ponte,,46.327957,10.870296,6340
2441,6350De,Deggiano Bivio,,46.323839,10.851495,6350
2442,6350,Mastellina,,46.322222,10.846842,6350
2443,6360,Mestriago,,46.321368,10.839837,6360
2445,6370,Piano di Commezzadura,,46.320439,10.825419,6370
2446,6380Sd,Mezzana-Est,,46.317140,10.806690,6380
2447,6380,Mezzana,,46.315846,10.802010,6380
2448,6380Nd,Mezzana-Ovest,,46.316772,10.798611,6380
2452,6395,Cusiano,,46.309863,10.745642,6395
2453,6398,Ossana,,46.307528,10.736464,6398
2454,6401,Fucine,,46.311165,10.731621,6401
2455,6408Co,Cortina di Vermiglio,,46.299593,10.699089,6408
2456,6408Su,Vermiglio Sud,,46.297618,10.695769,6408
2457,6408,Vermiglio,,46.296726,10.689145,6408
2458,6408No,Vermiglio Nord,,46.294790,10.686164,6408
2459,6409,Vellon Bivio,,46.283583,10.659509,6409
2460,6409Fs,Forte Strino,,46.280068,10.648355,6409
2461,6410An,Passo Tonale-Anas,,46.263321,10.611651,6410
2462,6410Lo,Passo Tonale-Locatori,,46.261366,10.594410,6410
2463,6410Su,Passo Tonale Sud,,46.260063,10.586561,6410
2464,6410,Passo Tonale,,46.258871,10.583569,6410
2465,6381,Marilleva 900,,46.314155,10.811592,6380
2466,6382Sa,Marilleva "Albergo Sole Alto",,46.298520,10.818789,6382
2467,6382Tc,Marilleva "Telecabina",,46.300719,10.813810,6382
2468,6382,Marilleva 1400 "Ag.Alpitour",,46.302481,10.810259,6382
2469,6382Lo,Marilleva 1400 "Resid. Lores",,46.303610,10.809153,6382
2470,6382So,Marilleva 1400,,46.304569,10.810522,6382
2475,6402,Celentino Bivio,,46.332813,10.709894,6402
2476,6403,Comasine Bivio,,46.335960,10.706466,6402
2477,6404,Celledizzo Bivio,,46.343942,10.701441,6404
2478,6405,Cogolo,,46.351466,10.693236,6405
2479,6406Ca,Peio-Campeggio Val di Sole,,46.356724,10.679113,6406
2480,6406,Peio-Fonti,,46.355636,10.662975,6406
2481,6407,Peio,,46.363725,10.675415,6407
2511,6120,Mezzolombardo,,46.213452,11.093443,6120
2512,6110,Mezzocorona-Borg.,,46.214948,11.118695,6110
2513,6100Fs,Mezzocorona-Staz.Fs,,46.207570,11.128292,6110
2514,6111,Mezzocorona-Pineta,,46.222934,11.133542,6111
2515,6112,Maso Nuovo,,46.229732,11.140831,6112
2516,6113Su,Roverè Della Luna-Sud,,46.246991,11.164688,6113
2518,6113No,Roverè Della Luna-Nord,,46.248489,11.177240,6113
2519,6100,Mezzocorona Ferrovia,,46.206335,11.127415,6110
2520,0953,Grumo,,46.196958,11.127338,6110
2521,6093,Maso Barco,,46.199916,11.142321,6093
2522,6094,Maso Canazzi,,46.195686,11.144587,6094
2523,6092,Villa Piccola,,46.197030,11.148027,6092
2524,6095Mo,Molini,,46.193123,11.154744,6095
2526,6095To,Faedo-Via Case Sparse. 9,,46.191841,11.155681,6095
2527,6095,Faedo,,46.192668,11.161231,6095
2528,1010Tm,Lavis-Staz. Ftm,,46.138142,11.108822,1010
2529,0940,Zambana,,46.151196,11.096590,0940
2530,0942Tm,Zambana-Staz. Ftm,,46.151404,11.100794,1010
2531,6120No,Mezzolombardo-Nord,,46.216896,11.087200,6120
2532,6131,Spormaggiore,,46.218109,11.047995,6131
2533,6131Zi,Spormaggiore Zona Industriale,,46.227458,11.051655,6131
2534,6131Su,Spormaggiore Sud,,46.225060,11.049374,6131
2535,6132,Castel Belfort,,46.204621,11.040809,6132
2536,6133,Cavedago,,46.184023,11.028968,6133
2537,6133Pc,Cavedago,,46.183709,11.027375,6133
2538,6133Pi,Cavedago Ai Piani,,46.190764,11.041592,6133
2539,6133Mc,Cavedago Maso Canton,,46.185517,11.038547,6133
2540,6133Md,Maso Dalsas,,46.184816,11.023580,6133
2541,6133Be,Cavedago-Cimitero,,46.185023,11.021294,6133
2542,6137,Andalo,,46.163920,11.002762,6137
2543,6137Su,Andalo Sud,,46.171090,11.007803,6137
2544,6137Vt,Andalo-Via Trento,,46.166961,11.003857,6137
2545,0956Ge,Genzianella,,46.151466,10.980892,0956
2546,0956No,Molveno Nord,,46.144090,10.966110,0956
2547,0956He,Molveno Htl Excelsior,,46.142605,10.962445,0956
2548,0001Ls,Trento-L.Go N. Sauro,,46.074839,11.125033,0001
2550,6134,Maso Daldoss,,46.182711,11.019719,6134
2551,6135,Fai Paganella,,46.179005,11.070116,6135
2552,6135Su,Fai Paganella-Sud,,46.183826,11.072533,6135
2553,6135Pt,Fai Paganella,,46.177583,11.069132,6135
2554,6135Co,Cortalta-Fai Della Paganella,,46.175510,11.065073,6135
2555,6135Mv,Fai Paganella-Miravalle,,46.175485,11.058938,6135
2557,6136,Santel,,46.175704,11.052306,6136
2558,6137Mt,Andalo-Maso Toscana,,46.169857,11.017019,6137
2559,6137No,Andalo-Nord,,46.168088,11.008341,6137
2560,6137Vp,Andalo-Via Paganella,,46.164957,11.007217,6137
2561,6211,Rallo Bivio,,46.350029,11.051765,6211
2562,6212,Rallo,,46.342731,11.046707,6213
2563,6213,Sanzenone,,46.335328,11.044682,6213
2564,6214,Pavillo,,46.331334,11.040788,6214
2565,6155No,Tuenno Nord,,46.332295,11.025508,6155
2566,6155,Tuenno,,46.325965,11.022364,6155
2567,6215,Nanno,,46.314835,11.047438,6215
2568,6216,Portolo,,46.303254,11.059854,6216
2569,6220Pc,Cles-Piazza Chiesa,,46.364641,11.036415,6220
2571,0001Zc,Trento Nord-Zona Commerciale,,46.09014,11.11306,0001
2572,0935Tm,Gardolo-Ferrovia,,46.108097,11.104558,0935
2573,0937Tm,Spini-Zona Industriale,,46.118667,11.104856,0937
2574,0938Tm,Lamar,,46.125960,11.107593,0937
2576,0946Tm,Nave S.Felice,,46.166862,11.113223,0946
2578,0953Tm,Grumo-S.Michele A/A.,,46.19388,11.12790,6110
2579,6100Tm,Mezzacorona Ferrovia,,46.206191,11.127397,6110
2580,6110Tm,Mezzocorona Borgata,,46.21423,11.11880,6110
2581,6120Tm,Mezzolombardo Ferrovia,,46.213454,11.093294,6120
2582,6123Tm,Masi di Vigo,,46.238967,11.062266,6123
2583,6140Tm,Crescino,,46.241916,11.058485,6123
2584,6150Tm,Denno,,46.263593,11.060205,6150
2586,6170Tm,Mollaro,,46.294617,11.068172,6170
2587,6180Tm,Segno Ferrovia,,46.304610,11.071497,6180
2588,6190Tm,Taio Ferrovia,,46.3221,11.06767,6190
2589,6200Tm,Dermulo Ferrovia,,46.337566,11.063165,6200
2590,6210Tm,Tassullo Ferrovia,,46.341056,11.053745,6210
2591,6220Tm,Cles Ferrovia,,46.364542,11.038895,6220
2592,6220Ps,Cles-Polo Scolastico,,46.36999,11.03374,6220
2593,6230Tm,Mostizzolo,,46.393921,11.011321,6230
2594,6240Tm,Bozzana,,46.388816,10.988814,6240
2595,6250Tm,Tozzaga Ferrovia,,46.382109,10.970715,6250
2596,6260Tm,Cassana Ferrovia,,46.375769,10.960513,6260
2597,6270Tm,Cavizzana Ferrovia,,46.371612,10.952043,6270
2598,6280Tm,Caldes Ferrovia,,46.366110,10.943240,6280
2599,6290Tm,Terzolas Ferrovia,,46.35806,10.92568,6290
2600,6300Tm,Male' Ferrovia,,46.353540,10.916942,6300
2601,6310Tm,Croviana Ferrovia,,46.34384,10.90721,6310
2602,6320Tm,Monclassico Ferrovia,,46.33251,10.88946,6320
2604,6340Tm,Dimaro Ferrovia,,46.328910,10.872232,6340
2605,6350Tm,Mastellina Ferrovia,,46.32223,10.84767,6350
2606,6355Tm,Daolasa Ferrovia,,46.31964,10.83612,6360
2609,6220Os,Cles-Ospedale,,46.360727,11.031517,6220
2610,6220Ma,Cles-Masere,,46.356839,11.029223,6220
2611,6157Su,Mechel-Sud,,46.351335,11.022417,6157
2612,6157Sm,Mechel--Civ. 19,,46.349423,11.020085,6157
2613,6157,Mechel,,46.348916,11.018220,6157
2614,6370Tm,Piano di Commezzadura,,46.31751,10.82643,6370
2615,6381Tm,Marilleva 900,,46.31527,10.81219,6380
2616,1300Va,Pozza di Fassa "Loc. Vac",,46.432642,11.687083,1300
2617,6230,Mostizzolo-Bivio,,46.393807,11.011668,6230
2618,6230To,Toflini,,46.399781,11.010735,6230
2619,6705,Scanna,,46.396204,11.025740,6705
2620,6710,Varollo,,46.398140,11.022169,6710
2621,6715,Livo,,46.405418,11.017741,6715
2622,6720,Preghena Ovest,,46.409016,11.010463,6720
2623,6760,Baselga di Bresimo,,46.415259,10.985103,6760
2624,6765Su,Bresimo Sud,,46.412205,10.973595,6765
2625,6765,Bresimo,,46.410794,10.968255,6765
2626,6720No,Preghena Nord,,46.409637,11.016806,6720
2627,6725Mo,Marcena Molini,,46.444993,11.009923,6730
2628,6725,Marcena,,46.441917,11.017475,6730
2630,6725Or,Marcena Ori,,46.440813,11.021925,6730
2631,6735In,Corte Inferiore Bivio,,46.439028,11.025890,6730
2632,6730,Mione,,46.437083,11.027969,6730
2633,6725Pa,Marcena Du Park,,46.445771,11.013295,6730
2634,6735,Corte Superiore Bivio,,46.448624,11.011240,6750
2635,6740,Scassio,,46.449562,11.009059,6750
2636,6750,Mocenigo,,46.450900,11.008221,6750
2637,6755,Lanza di Rumo,,46.454750,11.012450,6755
2638,6122,Truzzi Bivio,,46.239470,11.062324,6123
2639,6122Nd,Truzzi Nord,,46.243084,11.063909,6123
2643,6123,Masi di Vigo-Bivio,,46.248990,11.068939,6123
2644,6124,Bastianelli,,46.257920,11.082715,6124
2645,6125,Vigo di Ton,,46.265372,11.086167,6125
2646,6125Nr,Vigo di Ton-Nord,,46.263933,11.081178,6125
2647,6126,Bivio Raut,,46.261436,11.075689,6125
2648,6126Ra,Raut,,46.254575,11.069653,6125
2649,6127Sd,Toss-Sud-Via Verdi,,46.275582,11.080015,6127
2650,6127,Toss,,46.276612,11.079293,6127
2651,0942Vf,Lavis--Via Filos,,46.145606,11.097286,1010
2652,0940Ai,Zambana Aicheri,,46.154152,11.092792,0940
2653,0940Mg,Maso Gesuiti,,46.156479,11.091745,0940
2654,0945,Maso San Valentino,,46.159261,11.098110,0945
2655,0947,Nave San Rocco,,46.166352,11.109802,0947
2656,0948,Masetto,,46.171237,11.105359,0948
2657,0949,Maso Inon,,46.177718,11.105564,0949
2658,0950,Maso Tabarelli,,46.182694,11.105639,0950
2659,0951,Rupe,,46.195455,11.101801,0951
2660,6120St,Mezzolombardo Stella,,46.209487,11.094155,6120
2661,6140,Crescino,,46.241885,11.058665,6123
2662,6151Ma,Denno Magazzino,,46.266671,11.055952,6151
2663,6650,Cagnò,,46.394922,11.040170,6650
2664,6655,Revò,,46.390858,11.059223,6655
2665,6660,Romallo,,46.396342,11.066059,6660
2666,6660Nd,Romallo Nord,,46.399681,11.068547,6660
2667,6665Sd,Cloz Sud,,46.416351,11.084548,6665
2668,6665,Cloz,,46.419465,11.087258,6665
2669,6665Nd,Cloz-Nord,,46.421863,11.089961,6665
2670,6670,Arsio,,46.426557,11.096350,6670
2671,6675,Brez,,46.430992,11.107223,6675
2672,6686,Castelfondo,,46.454373,11.117516,6686
2673,6580,Fondo-Piazza S.Giovanni,,46.439416,11.135808,6580
2674,6580Ca,Fondo-Via Garibaldi,,46.437269,11.137786,6580
2675,6580Au,Fondo-Autorimessa,,46.436126,11.140681,6580
2676,6151,Denno,,46.274960,11.048179,6151
2677,6152,Cunevo,,46.285934,11.037961,6152
2678,6153,Flavon,,46.299109,11.031190,6153
2679,6154,Terres,,46.309982,11.022795,6154
2680,6155Su,Tuenno-Sud,,46.321470,11.021827,6155
2681,6156,Mechel Bivio,,46.352206,11.027089,6220
2683,6199,Santa Giustina,,46.346039,11.060428,6199
2684,6200,Dermulo,,46.337645,11.062917,6200
2685,6501Pa,Coredo,,46.348752,11.088969,6501
2686,6503Pa,Smarano,,46.341949,11.107755,6503
2687,6504,Sfruz,,46.336818,11.115841,6503
2688,6581,Tret,,46.478291,11.138235,6581
2694,6143,Sporminore,,46.237349,11.031290,6143
2695,6143Nd,Sporminore Nord,,46.239613,11.023899,6143
2696,6144,Lover,,46.247526,11.024542,6144
2697,6145Bv,Campodenno-Bivio,,46.258800,11.032814,6145
2698,6142,Quetta-Bivio,,46.258112,11.046466,6145
2699,6147,Termon,,46.268090,11.036287,6151
2701,1075Cp,Palu' di G.-C.Polisportivo,,46.159422,11.143570,1075
2702,6510,Sanzeno,,46.365670,11.074273,6510
2703,6530,Malgolo,,46.378329,11.088787,6530
2704,6530Nd,Malgolo-Nord,,46.380902,11.094416,6530
2705,6540,Salter,,46.377512,11.105840,6540
2706,6540Nd,Salter-Nord,,46.381139,11.107306,6540
2707,6550,Romeno,,46.393983,11.119956,6550
2708,6560Pi,Cavareno-Loc. Piena,,46.402899,11.132187,6550
2709,6560Pa,Cavareno,,46.409370,11.137490,6560
2710,6570,Sarnonico,,46.418620,11.140698,6570
2711,6580Sd,Fondo-Sud,,46.432346,11.140639,6580
2712,6590,Malosco,,46.434123,11.144997,6590
2715,6600,Ronzone,,46.424321,11.151776,6600
2716,6600Sd,Ronzone-Sud,,46.419660,11.146720,6600
2717,6610Bv,Ruffrè-Bivio,,46.417474,11.166256,6610
2718,6610Gi,Ruffrè-Giordani,,46.419337,11.175865,6610
2719,6610,Ruffre',,46.416263,11.176873,6610
2720,6610Va,Ruffrè-Valletta,,46.414455,11.185064,6610
2722,6630Mi,Mendola,,46.418340,11.204664,6630
2723,6630,Passo Mendola,,46.416009,11.208159,6630
2724,6511,Banco,,46.374469,11.069688,6510
2725,6512,Casez,,46.375792,11.075892,6510
2727,6562,Don,,46.389919,11.136609,6560
2728,6563,Amblar,,46.395277,11.144171,6560
2730,6516,Piano-Sanzeno,,46.369418,11.070060,6510
2731,6700,Cis,,46.399465,11.003162,6700
2732,6700Su,Cis-Sud,,46.397800,11.007481,6700
2734,6513,Dambel,,46.405174,11.092372,6513
2735,6514,Seio,,46.416811,11.126723,6514
2736,6280,Caldes,,46.366173,10.943217,6280
2737,6260,Cassana,,46.375715,10.960524,6260
2738,6250,Tozzaga,,46.382041,10.971017,6250
2739,6240,Bozzana,,46.388715,10.988650,6240
2740,6170,Mollaro,,46.294658,11.075055,6170
2741,6171,Tuenetto Bivio,,46.297304,11.080508,6171
2742,6172,Dardine,,46.286258,11.082410,6172
2743,6173,Priò,,46.289656,11.093724,6173
2744,6174,Vervo',,46.307291,11.118663,6191
2745,6191,Tres,,46.320318,11.094056,6191
2746,6190,Taio,,46.321648,11.066397,6190
2747,6145,Campodenno-Piazza,,46.258032,11.034519,6145
2748,0942,Zambana-Statale 12,,46.150336,11.100145,1010
2749,6162,Lago di Tovel,,46.264856,10.955009,6162
2750,6161,Albergo Capriolo,,46.294769,10.974615,6161
2751,6170St,Mollaro-Parcheggio Ftm,,46.294247,11.067977,6170
2758,6096,Pineta di Faedo,,46.197721,11.168364,6096
2759,6687,Dovena,,46.454276,11.130506,6686
2760,6688,Raina,,46.458930,11.119578,6686
2761,4143Se,Hacleri-Sp 135 Km. 8.8,,46.113461,11.324593,4143
2762,4143Pr,Hacleri-Sp 135 Al Km. 9.9,,46.116172,11.333322,4143
2763,3346Aa,Ala-Albergo Città di Ala,,45.754163,10.997392,3346
2766,3242,Dosso-Vallarsa,,45.819708,11.092332,3159
2767,3220,Staineri,,45.797292,11.093556,3162
2768,1070Va,Cavalese-Via Degli Artigiani,,46.288964,11.448017,1070
2769,1070Vr,Cavalese-P.Zza Francescani,,46.292004,11.458578,1070
2770,4310Ze,Barco Zechinati,,46.000894,11.329780,4310
2771,6139,Moncovo,,46.263613,11.060231,6150
2772,6159,Segonzone Bivio,,46.250070,11.031818,6144
2775,3520Ml,Arco Viale Rovereto,,45.913004,10.897338,3520
2776,6220Pf,Cles-Piazza Fiera,,46.367852,11.034999,6220
2778,6230La,Mostizzolo,,46.394209,11.013361,6230
2779,6220Vt,Cles-Viale Trento,,46.356259,11.038093,6220
2780,6290,Terzolas-Bivio Paese,,46.358263,10.925114,6290
2782,2121,Ponte Oliveti,,46.042757,10.962265,2121
2783,6630Vi,Villini,,46.417202,11.190257,6630
2784,3213,Geroli,,45.865050,11.170175,3213
2785,1223Bv,Bivio Passo Valles,,46.308565,11.751183,1223
2786,3408,S.Giacomo di Brentonico,,45.798773,10.919616,3408
2787,3409,Passo S.Valentino,,45.783110,10.912169,3409
2788,3520Ct,Arco S.Caterina Poli Reg.,,45.909505,10.870503,3520
2790,3520Cr,Arco S.Caterina Poli Reg.,,45.909916,10.870985,3520
2792,2127He,Dro-Ss.45-Hotel Eden,,45.970063,10.923463,2127
2794,4144,Masi di Mezzo,,46.028019,11.227058,4250
2795,4145,Maso Canela,,46.022087,11.227065,4250
2796,4129,Canale di Pergine V.,,46.043635,11.227039,4200
2798,4135,Vignola,,46.044539,11.277071,4135
2799,2023Vp,M.Terlago-Inc. Via Paganella,,46.110766,11.038259,2023
2800,2053Vc,Vigo Cavedine-V.Capitello,,45.981509,10.977915,2054
2801,4070To,Montesover-Tornante,,46.219136,11.325826,4070
2803,0952,Sornello-Piazzale Ex Dogana,,46.182122,11.122684,0944
2806,2240Dr,Ponte Ragoli R,,46.050613,10.785158,2240
2807,4126Ba,Battisti,,46.131142,11.361705,4126
2808,2122Va,Pergolese-V.Dell'agricoltura,,46.032987,10.959916,2122
2809,2122Vp,Pergolese-Inc Via Dos Dei Pini,,46.030486,10.958820,2122
2810,3850Mr,Lavarone C.-Ht. Monte Rust,,45.943991,11.248563,3850
2811,4126To,Palù Del F.-Loc.Tolar Civ. 69,,46.130616,11.357967,4126
2812,1080Me,Valda-P.Zza Melari. 4,,46.208059,11.256599,1080
2813,1081Fo,Grumes-Via Fontanelle,,46.219672,11.293096,1081
2814,1083Mi,Capriana-Loc. Miravalle,,46.261787,11.343111,1084
2816,1160Bv,Daiano-Ss620 Bivio Per Daiano,,46.299754,11.452598,1160
2817,5122Gi,Canal S.Bovo-Loc. Giaroni,,46.161766,11.714310,5117
2818,5146Vn,Transacqua-Via Navoi 66,,46.168886,11.825254,5140
2819,5180Mt,S.Martino di C.-Motel Taufer,,46.252478,11.802392,5180
2820,2620Ro,Sardagna-Rotatoria,,46.065664,11.095495,2620
2825,3045Nu,Folgaria-P.Le N.Unite,,45.913941,11.170211,3045
2827,3042Aa,Mezzomonte-Az. Agricola,,45.919873,11.141608,3042
2828,3048Ma,Costa-Via A.Maffei,,45.920588,11.193240,3048
2829,3213Se,Sega,,45.865707,11.175619,3213
2830,6135Sa,Fai Paganella-A.Stella Alpina,,46.180891,11.071658,6135
2831,0956Bp,Molveno-Via Nazionale 73,,46.145717,10.971196,0956
2834,6111Fu,Mezzocorona-Furlan Legnami,,46.224367,11.133563,6111
2835,6110Pa,Mezzocorona-Via Borgo Nuovo,,46.217154,11.127366,6110
2837,6211Mh,Rallo-Maierhofer,,46.351432,11.053898,6211
2838,6501Dq,Coredo-Distributore Repsol,,46.347121,11.079379,6501
2839,6502,Tavon,,46.363029,11.095308,6501
2840,1057,Fontanefredde,,46.330364,11.374273,1058
2841,1058,S.Lugano,,46.311565,11.394020,1058
2842,6143Bv,Sporminore Bivio,,46.240719,11.056909,6123
2847,0954Vb,S.Michele A/Adige,,46.193212,11.133220,6110
2871,4127,Assizzi,,46.050572,11.257424,4127
2894,4129Cn,Canale di Pergine Valsugana,,46.042118,11.229602,4200
2899,0001Tn,Trento Nord,,46.095106,11.116921,0001
2918,0937Ir,Stabilimento Whirlpool,,46.118254,11.096919,0937
2941,0954Ia,S.Michele A/A.-Ist. Agrario,,46.194089,11.135444,6110
2998,1070Ce,Impianti Cermis,,46.284740,11.472377,1070
3002,1078Sc,Cembra-Polo Scolastico,,46.172897,11.223458,1078
3019,1138,Pian Del Gac,,46.130680,11.204216,1111
3037,1220It,Predazzo-I.T.C.,,46.310910,11.599020,1220
3039,1221Cs,Castelir di Bellamonte,,46.312766,11.687638,1221
3057,1300Ia,Pozza di Fassa-Istituto Arte,,46.423109,11.682661,1300
3074,2024,Laghi di Lamar,,46.127872,11.061505,2023
3082,3155Sp,Vanza Sp50,,45.856329,11.079678,3155
3109,0001Bl,Trento-Bellevue,,46.053214,11.136442,0001
3122,1145,Piazzo di Segonzano,,46.182086,11.252866,1115
3134,2144Se,Molina di Ledro-Sc.Elementare,,45.870840,10.774516,2144
3141,2149Se,Enguiso-Scuola Elementare,,45.904428,10.729468,2147
3149,2156Se,Tiarno di Sopra-Sc. Elem.,,45.888920,10.670416,2156
3154,2176,Pranzo,,45.922618,10.818157,2189
3155,2176Bn,Pranzo Via Dei Castagni,,45.924838,10.817236,2189
3156,2176Bs,Pranzo Via Pernici,,45.921378,10.820257,2189
3160,2178Bv,Campi Bivio Sp 37,,45.925537,10.815170,2189
3167,2180Sm,P.Arche-Sc.Medie,,46.035620,10.870542,2180
3172,2186,Favrio,,46.000487,10.856972,2185
3192,2217,Andogno,,46.066487,10.895390,2216
3213,2290Sm,Tione-Via Circonvallazione 65,,46.036584,10.728160,2290
3244,2421,Bocenago-Paese,,46.120707,10.760843,2420
3248,3230Ma,Porte di Trambileno,,45.883438,11.052388,3230
3249,3230Ch,Porte di Trambileno-Chiesa,,45.883305,11.053762,3230
3291,3080It,S.Ilario I.T.I.,,45.910555,11.041964,3100
3308,3100Ee,Rovereto Scuola Ex Edili,,45.879909,11.035312,3100
3319,6581Nd,Tret Nord,,46.480185,11.142110,6581
3325,3100Pc,Rovereto-Ist. Don Milani,,45.894292,11.032808,3100
3328,3100Re,Rovereto-Sc.Elementari R.Elena,,45.888073,11.039361,3100
3331,3100Sn,Rovereto-Sc.Medie Negrelli,,45.896365,11.043286,3100
3332,3100So,Rovereto--Via Manzoni,,45.892256,11.038973,3100
3334,3100Sr,Rovereto-Studentato Rosminiano,,45.882186,11.042934,3100
3341,3101Sm,Villa Lagarina-Sc.Medie,,45.917866,11.031735,3101
3382,3175,Acheni,,45.836615,11.076857,3175
3392,3201Db,Noriglio "Distributore",,45.887519,11.059261,3201
3401,3214,Valle di Terragnolo,,45.881116,11.149756,3209
3437,3310Sm,Mori-Sc.Medie,,45.852589,10.984853,3310
3490,6190Sm,Taio-Plesso Scolastico,,46.322115,11.069508,6190
3494,3407Sc,Brentonico-Via Calzolari,,45.819109,10.956539,3407
3531,7015,Villazzano-Staz.Fs,,46.045183,11.139123,0001
3555,1146,Parlo,,46.180634,11.251654,1115
3558,0001Rf,Roncafort,,46.101275,11.101580,0001
3576,4025Sc,Baselga di Pinè-Sc.Medie,,46.128335,11.244239,4025
3597,4100Bi,Pergine V. Bivio Via Industria,,46.069437,11.237763,4100
3606,4100Sa,Pergine V.-Scuole Andreatta,,46.068639,11.245424,4100
3623,4131,S.Vito di Pergine,,46.035145,11.220262,4130
3628,4150,Pergine-Loc. Buss,,46.088307,11.225966,4134
3645,4300Sm,Levico T.-Ex Scuole Medie,,46.009370,11.305503,4300
3655,4370Rm,Marter Via Nazionale 24,,46.037113,11.398467,4370
3659,4427,Maso Rozza,,46.063889,11.402756,4425
3666,2199Ma,Madice-Loc. Maton Civ. 1,,46.020909,10.826261,2199
3682,4423,Maso Scali,,46.059190,11.415610,4420
3683,4424,Maso Sasso,,46.063370,11.426860,4430
3684,4425,Maso Lagon,,46.061320,11.415315,4425
3685,4426,Maso Montibelleri,,46.064484,11.408691,4425
3686,4428,Maso Fraineri,,46.062870,11.397734,4425
3687,4429,Maso Uelleri,,46.059855,11.398560,4429
3688,4431,Maso Vestri,,46.057910,11.403763,4431
3689,4433,Maso Zanorgi,,46.055116,11.398768,4433
3690,4434,Molini di Roncegno,,46.054166,11.397305,4433
3691,4435,Maso Cadenzi,,46.051761,11.401260,4433
3760,5110Is,Imer Zona Sportiva,,46.148666,11.796557,5110
3767,5123,Revedea,,46.152845,11.745976,5115
3776,5141Se,Tonadico-Scuole Elementari,,46.179527,11.835660,5140
3779,6300Ex,Malè-Ex Stazione Ftm,,46.352922,10.914909,6300
3786,5160Cs,Siror Centro Sportivo,,46.190727,11.828292,5160
3805,6110Sm,Mezzocorona Scuole Medie,,46.213267,11.117117,6110
3806,6120Au,Mezzolombardo Autostile,,46.206818,11.095894,6120
3808,6120Sm,Mezzolombardo Sc. Media,,46.216559,11.092362,6120
3809,6120Vm,Mezzolombardo Via Milano,,46.208839,11.093689,6120
3813,6128,Castelletto di Ton,,46.247143,11.062585,6123
3816,6146,Dercolo,,46.250410,11.044558,6144
3817,6151Sm,Denno Scuola Media,,46.270785,11.048638,6151
3819,6220Cs,Cles Centro Sportivo,,46.344184,11.026766,6220
3869,3346Sc,Ala Scuole,,45.756437,11.001202,3346
3871,3230Te,Porte-Dosso,,45.881437,11.054570,3230
3872,3100Ma,Rovereto-Via S.Maria. 66,,45.884662,11.042891,3100
3873,3100Zu,Rovereto-Via Zugna Civ. 48,,45.884392,11.049382,3100
3893,6380Cs,Mezzana-Centro Sportivo,,46.313819,10.797371,6380
3895,6270,Cavizzana Bivio,,46.371565,10.952171,6270
3896,4432,Maso Zonti,,46.055367,11.401856,4431
3901,6302Sd,Bolentina Sud,,46.344970,10.889468,6302
3910,6324Mo,Le More,,46.404624,10.836070,6324
3911,6326Fo,Rabbi Bagni-Vecchia Fonte,,46.407744,10.810045,6327
3916,5117Sm,Canal S.Bovo-Sc.Unica A Lausen,,46.151269,11.734022,5117
3917,6170Ss,Mollaro Ss,,46.294139,11.067207,6170
3918,6180,Segno Ss,,46.304717,11.071514,6180
3928,0960Hl,Riva V.Carducci H.Liberty,,45.885755,10.846558,0960
3929,4300Sc,Levico Terme-Ris. Scarano',,46.016184,11.314365,4300
3931,4331Te,Terme di Vetriolo,,46.041561,11.309725,4331
3939,6155Bv,Tuenno-Bivio Val di Tovel,,46.325236,11.021363,6155
3942,6161Ta,Tamburello,,46.290963,10.974556,6161
3943,6161Gl,Glare,,46.280241,10.963734,6161
3944,2040Sd,Vezzano-Apt,,46.075558,10.996341,2040
3946,3346Fs,Ala-Stazione Fs,,45.759057,10.996513,3346
3947,3358Pl,Vò Sinistro-Passaggio Livello,,45.734317,10.957314,3358
3950,5109Pg,Lausen P.Le Impresa Grisotto,,46.150588,11.735762,5117
3951,5109Lp,Lausen Loc. Pradel,,46.149687,11.738813,5117
3956,2131Ct,Pietramurata-Carr.Toccoli,,46.027956,10.945693,2125
3958,3235Bs,Aste Basse,,45.790320,11.096300,3162
3959,1190Vr,Tesero-Via Roma,,46.289215,11.502906,1190
3960,0001Gu,Trento-Via Guardini,,46.091632,11.119298,0001
3961,1070Pa,Cavalese-Palacongressi,,46.288954,11.465621,1070
3967,0001Sl,Trento-Cavalcavia S.Lorenzo,,46.070045,11.116683,0001
3969,2125Ms,Pietramurata-Stab.Mecc.Sarca,,46.025811,10.944803,2125
3970,4464Mm,Torcegno-Maso Mocchi,,46.073766,11.444568,4464
3971,2040Sn,Vezzano Sud,,46.076071,10.996890,2040
3972,6139Pa,Moncovo-Paese,,46.260329,11.063002,6150
3974,0001Sn,Trento-Via Sardagna Civ. 104,,46.072035,11.099473,0001
3981,4490Ss,Primolano-Ex Staz. Fs,,45.965598,11.701749,4490
3982,3343Vt,S.Margherita-Via Trento,,45.793670,11.022814,3343
3994,3100Rz,Rovereto C.So Rosmini,,45.890887,11.038602,3100
3995,3103Ro,Pomarolo-Via Rovereto,,45.923522,11.041614,3103
3996,3080La,Sant'ilario Via Lagarina,,45.910313,11.039879,3100
4001,6510Nd,Sanzeno Nord-Museo Retico,,46.369702,11.080212,6510
4003,6550Cv,Romeno-Civ. 38,,46.399287,11.127024,6550
4004,6550Ca,Romeno-Caseificio,,46.401119,11.128721,6550
4006,2421Pi,Bocenago,,46.116993,10.757671,2420
4007,6560Cc,Cavareno-Centro Commerciale,,46.412956,11.139657,6560
4009,2310Aa,Cimego-Albergo Aurora,,45.912809,10.619455,2310
4010,5116Mm,Zortea-Masi di Mezzo,,46.163848,11.747301,5116
4011,4451Ss,Agnedo-Strada Statale,,46.048313,11.529300,4451
4013,6133Ho,Cavedago-Albergo Olisamir,,46.185905,11.032963,6133
4016,6126Cr,Raut-Sp 203 Dif. Civ. 1,,46.257106,11.071562,6125
4018,6570Ag,Sarnonico-Agip,,46.426919,11.141869,6570
4019,1040Sf,S.Floriano,,46.283385,11.240012,1040
4020,2640Gc,Vaneze-Sp 85 Civ. 20,,46.052109,11.073303,2640
4021,1077Cs,Lisignago-Campo Sportivo,,46.158861,11.192014,1077
4024,3354Co,Masi D'avio Ss.12 Civ. 2,,45.719509,10.940406,3354
4027,3312Vd,Ravazzone-Via Del Dazio,,45.863119,10.997312,3312
4028,4121Vv,Viarago Via Vinciguerra 33,,46.080590,11.264625,4112
4029,3416,Loc. Cazzanelli di Cornè,,45.805462,10.979111,3405
4030,2146Sc,Pieve di Ledro-Via Nuova,,45.890616,10.727428,2146
4032,6120Cp,Mezzolombardo Corso Del Popolo,,46.214318,11.091540,6120
4038,3520Fb,Arco P. Foro Boario,,45.918164,10.887945,3520
4040,3520Fu,Arco Via Frumento,,45.916303,10.876895,3520
4041,3520Un,Arco Via Marconi,,45.917805,10.885160,3520
4047,2137En,Pasina,,45.903954,10.849881,2136
4060,2133Gv,Varignano Via Grazie/Veneto,,45.916255,10.858904,3520
4061,2134Ci,Vigne Cimitero,,45.919409,10.863098,3520
4063,2022Is,Covelo-Incr. Sp18,,46.093539,11.016990,2023
4066,3010Ci,Mattarello-Via Nazionale,,46.012407,11.130568,3010
4068,3010Cr,Mattarello-Regole,,46.013560,11.131504,3010
4069,3520Cb,Arco V.Cesare Battisti,,45.918508,10.882411,3520
4070,2122Lt,Pergolese-Via Lungolago 3/10,,46.024706,10.959946,2122
4071,2123,Pergolese-Via Lungolago 29,,46.021562,10.959047,2123
4072,2058Lp,Lago Cavedine-Civ. 7,,46.017361,10.958937,2058
4074,2058Lg,Lago Cavedine-Civ. 21,,46.012118,10.957099,2058
4076,2058,Lago di Cavedine-Predorighi,,45.994059,10.951554,2058
4077,2058Tb,Lago di Caveine-Trebi,,45.990709,10.942695,2058
4078,2058La,Lago di Cavedine-Bv.Lastoni,,46.003468,10.956083,2058
4079,2058Ll,Lago di Cavedine-Civ. 25,,46.007505,10.956884,2058
4081,3520Rr,Arco-Autostaz.,,45.916407,10.882629,3520
4082,3235Br,Aste Basse-Dir. S.Anna,,45.790542,11.096463,3162
4084,3100Ro,Rovereto C.So Rosmini 61,,45.890963,11.037817,3100
4086,3100Ba,Rovereto-Parco Ferrari,,45.877911,11.033332,3100
4088,3310Az,Mori Via Del Garda. 63,,45.851830,10.972048,3310
4091,3100Mm,Rovereto-Santuario M.Del Monte,,45.879717,11.041039,3100
4100,3201Sc,Via Dei Colli-Tornante,,45.888407,11.054878,3201
4115,0001Za,Trento-Via Zambra-Ist.Arte,,46.092360,11.116454,0001
4116,0001Zm,Trento-Via Zambra-Top Center,,46.091190,11.117910,0001
4120,3100Sb,Rovereto Via Saibanti,,45.888137,11.036760,3100
4140,3100Mz,Rovereto-Via Manzoni,,45.893341,11.036164,3100
4141,1084Mc,Capriana-Maso Conti,,46.256856,11.332910,1084
4145,1150Ci,Carano-Via Paredon/Cimana,,46.294217,11.438876,1070
4146,3042Fo,Mezzomonte Civ. 23-Fontana,,45.918043,11.134534,3042
4147,3042Fp,Mezzomonte Finito Paese Km 6.3,,45.918456,11.138418,3042
4148,3416Bs,Cornè Bivio Per Saccone,,45.810266,10.979268,3405
4149,2314Sp,Storo-Via Sette Civ. 8,,45.848472,10.574439,2314
4153,5109La,Lausen-Bar Lagorai,,46.148563,11.735015,5117
4154,4100Ci,Pergine V.-C.Intermodale,,46.063360,11.231388,4100
4155,5010Pq,Feltre Pasquer,,46.021627,11.920064,5010
4156,4141Mp,S.Francesco-Maso Prigheli,,46.105438,11.314606,4141
4163,2630Na,Candriai-Sp 85 Km. 9.4,,46.062236,11.079694,2630
4164,4111Pa,Zivignago-Paese,,46.066737,11.255123,4100
4165,1088Ce,Molina di Fiemme-Via Cembra 47,,46.268508,11.410247,1088
4167,2470Mm,S.Antonio.Di Mav. Maso Mistrin,,46.193516,10.792873,2470
4178,3300Lu,Rovereto Zona Ind."Luxottica",,45.864912,11.017706,3100
4179,3300In,Rov.Z.Ind. "Viale Industria",,45.871712,11.020613,3100
4180,3302Sc,Mori-Terranera--Farmacia,,45.850002,10.980961,3310
4189,4138Ut,Costasavina Via Della Uta,,46.059810,11.217256,4137
4192,3300Rc,Rov.Z.Ind. "Rovercenter",,45.863789,11.027037,3100
4194,2021Ve,Terlago Via Per Vezzano 9,,46.099436,11.032602,2021
4195,3041Ch,Dietrobeseno-Chiesetta,,45.925137,11.120464,3041
4198,6212Sc,Rallo-Via S.Gioan,,46.345334,11.048564,6213
4199,6504Cr,Sfruz Loc. Credai,,46.340996,11.128373,6503
4200,6174Sc,Vervo'-Via Trento Civ. 8,,46.308437,11.116045,6191
4202,6600Ma,Ronzone-Via Malosco,,46.428060,11.154396,6600
4213,6600No,Ronzone Nord,,46.426364,11.159405,6600
4216,6220Ms,Cles-Negozio Mascotti,,46.361669,11.037271,6220
4217,6220Be,Cles-Ex Bentivoglio,,46.358211,11.037125,6220
4218,6220Do,Cles-Ex Dorigoni,,46.352469,11.046660,6220
4220,6405Bm,Cogolo Bar Miki,,46.352298,10.690519,6405
4221,6406Fa,Peio Area Faunistica,,46.358569,10.666184,6407
4224,3070Dt,Volano-Via Des Tor,,45.917441,11.057459,3070
4227,6511Se,Banco Sc.Elem.,,46.374812,11.071915,6510
4228,3300Vv,Rovereto Z.Ind.V.Di Vittorio34,,45.863112,11.020759,3100
4229,3359,S.Martino Campo Sportivo,,45.760367,11.008557,3346
4230,6655Ma,Revò P.Madonna,,46.390909,11.057644,6655
4232,6144Hl,Lover-Hotel Lover,,46.250121,11.025891,6144
4233,6153Nd,Flavon Nord,,46.301834,11.028059,6153
4234,3302Ts,Mori-Terranera--Scol.Rotatoria,,45.847758,10.983715,3310
4236,0951Tn,Mezzolombardo V.Trento 31,,46.192662,11.098790,0951
4238,0949Qu,Maso Quadrifoglio,,46.173866,11.105303,0948
4239,0949Is,Loc. Ischia Civ. 4,,46.173243,11.105461,0948
4243,3100Hr,Rovereto Via Halbherr,,45.885043,11.037665,3100
4244,6514Pa,Seio Paese,,46.418672,11.127114,6514
4245,6514Cs,Seio Centro Sportivo Verde,,46.411721,11.118516,6514
4246,6590Sf,Malosco Segheria Fanti,,46.430340,11.151857,6590
4247,6590Hb,Malosco H.Bucaneve,,46.431885,11.150121,6590
4252,1060Ns,Castello di F. Nucleo Stazione,,46.287189,11.421064,1060
4257,1050Rt,Egna-Parcheggio Rio Trodena,,46.320861,11.274668,1050
4258,3042Ci,Mezzomonte di Sotto Al Km 5.6,,45.919387,11.134856,3042
4261,3100Or,Rovereto-Ospedale,,45.881782,11.037840,3100
4263,3295Sr,Lizzana-Scuole,,45.870476,11.031082,3100
4264,3295Rr,Lizzana,,45.866459,11.029938,3100
4265,3295Or,Lizzana-Rovercenter,,45.864119,11.028967,3100
4267,3341Vr,Marco Via Ii Novembre 30,,45.847797,11.011652,3341
4268,3341Or,Marco-Officina,,45.843877,11.008605,3341
4269,3341Rr,Marco,,45.841471,11.008232,3341
4271,3341Zr,Marco-Zona Ind.Le,,45.825688,11.010956,3341
4272,3342Rr,Serravalle,,45.809511,11.014713,3342
4273,3343Tr,Serravalle Via Trento/Vanga R,,45.800938,11.023579,3343
4274,3343Rr,S.Margherita,,45.796906,11.024864,3343
4277,3344Rr,Marani,,45.781087,11.015930,3344
4278,3344Fr,Marani-Via Campagnole,,45.777947,11.014511,3344
4279,3344Mr,Marani-Fabbrica Bvm,,45.773563,11.012584,3344
4280,3344Er,Marani-Centrale Elettrica,,45.769911,11.010405,3344
4282,3346Rr,Ala-Via Malfatti,,45.758386,11.000886,3346
4283,3346Or,Ala-Ospedale Bivio,,45.756530,10.998930,3346
4285,6504Al,Sfruz-Via Smarano 16,,46.339372,11.114523,6503
4286,4123Ds,S.Orsola Bivio Loc. Dosi,,46.093569,11.283177,4122
4288,6120Pm,Mezzolombardo "Prema",,46.202918,11.098520,6120
4289,6120Va,M.Bardo"Colonna Vasellame",,46.200360,11.100587,6120
4290,0947Mu,Nave San Rocco-Municipio,,46.166820,11.107211,0947
4291,4497Mc,Samone-S.P. 39 Al Km 1.4,,46.079260,11.523472,4497
4292,5117La,Canal S.Bovo Loc.Al Lago,,46.167103,11.710155,5117
4293,5141Ml,Tonadico-Madonna Della Luce,,46.186456,11.850412,5140
4294,4550Rr,Pieve Tesino,,46.068166,11.610185,4550
4295,5160Zo,Siror-Bivio Loc. Zocaril,,46.204414,11.818547,5160
4297,4126Tl,Palù Del F.-Loc.Tolar Civ. 70,,46.129214,11.355266,4126
4298,1118Bn,Scancio di S.-Bivio Nord,,46.193317,11.260220,1118
4302,3045Sp,Folgaria-Palasport,,45.913508,11.173611,3045
4303,4410Ol,Olle-Via Per Olle Civ. 55,,46.044314,11.460639,4410
4304,4139Ci,Fornaci Via Cimirlo 2/4,,46.061772,11.227006,4137
4307,6503Me,Smarano Loc. Merlonga,,46.349288,11.110746,6503
4308,6503Sw,Smarano Via Schwarz,,46.345071,11.111494,6503
4309,6610Ci,Ruffre'-Cimitero,,46.414688,11.180441,6610
4310,2251Mo,Preore-Loc. Molina,,46.047774,10.764534,2240
4311,2311Mo,Condino-Loc. Mon,,45.865415,10.578113,2311
4312,1280Mu,Vigo di Fassa-Museo Ladino,,46.423145,11.679969,1280
4314,3389Pl,Ronzo Chienis-Pra Da Lac,,45.894612,10.962039,3389
4319,6570Se,Sarnonico-Sc. Elementari,,46.419829,11.138403,6570
4323,4200Fs,S.Cristoforo-Fs,,46.039761,11.234173,4200
4324,4260Fs,Calceranica-Staz. Fs,,46.007270,11.240536,4260
4325,4380Fs,Roncegno-Staz. Fs,,46.036514,11.398673,4370
4326,3070Dr,Volano Ss 12,,45.917129,11.056339,3070
4327,4400Ce,Borgo Centro-Staz. Fs,,46.051405,11.454426,4400
4329,7014,S.Chiara-Staz. Fs,,46.054385,11.135440,0001
4330,3690Ga,Garniga T. Loc. Gatter,,45.991139,11.080773,3690
4331,1070Ze,Cavalese-V.Matteotti Km.22,,46.296021,11.455940,1070
4332,4380Mu,Roncegno-Municipio,,46.050702,11.409642,4380
4333,5113Vi,Prade Via Villanuova 1,,46.157067,11.742961,5113
4335,6675No,Brez Via 4 Novembre 15,,46.429400,11.102788,6675
4337,4128Ec,Maso Eccher,,46.021358,11.217837,4250
4338,2178Fa,Campi,,45.911134,10.811283,2189
4340,4436,Maso Beberi,,46.061469,11.419769,4425
4341,2185Ds,Fiave'-Loc. Doss,,45.996897,10.840787,2185
4344,4457Na,Tezze Via Nazionale,,45.987386,11.674140,4457
4346,4100An,Pergine-Via Dell'angi,,46.049161,11.234423,4100
4347,4100Ar,Pergine-Via Dell'angi,,46.049287,11.234428,4100
4348,4120Ce,Serso Centrale Idroelettrica,,46.072714,11.247788,4120
4350,3840Gi,Virti-Bar Giardino,,45.941442,11.232604,3850
4351,1059Pa,Cela-Aguai-Paese,,46.301237,11.404072,1070
4376,2150Sc,Lenzumo Via U.D'italia 2,,45.909332,10.726551,2147
4379,3342Ss,Serravalle Via G.Cantore 21,,45.806690,11.017468,3342
4381,1220Fg,Predazzo Via Fiamme Gialle,,46.303587,11.593642,1220
4383,0954Co,S.Michele Sp 58 Convitto,,46.195558,11.134840,6110
4384,6580Ss,Fondo-Via 4 Novembre,,46.439968,11.132872,6580
4385,6504Sd,Sfruz Via Smarano "Segheria",,46.340768,11.112971,6503
4387,6210Ce,Tassullo-Ss 43 Cementificio,,46.349409,11.055871,6211
4388,4300Cc,Levico Terme-C.So Centrale 15,,46.008563,11.303584,4300
4389,3770Ro,Pian Dei Pradi-Rotatoria,,45.978337,11.236205,3770
4390,2180Vp,Ponte Arche-Via Prati 8,,46.033789,10.870138,2180
4391,2180Cc,Ponte Arche-Via Ballino,,46.031286,10.868637,2180
4392,2181Ip,Campo Lomaso-Inizio Paese,,46.027169,10.868018,2181
4393,2185Co,Fiave'-Bivio Cornelle,,46.005605,10.832086,2185
4394,2213Cv,Stenico Loc. Cros Da Val,,46.051741,10.864960,2213
4406,6124Ba,Bastianelli Sp 124 Km. 3.2,,46.260386,11.084700,6124
4412,3183An,Moscheri Civ. 23/B,,45.872262,11.071665,3183
4413,1060Ro,Castello di Fiemme Via Roma,,46.285237,11.438522,1060
4417,1280Nr,Vigo di Fassa-Strada Neva,,46.418311,11.676947,1280
4418,2142Sc,Biacesa-Via Nuova,,45.865720,10.805986,2142
4426,6113Ad,Rovere' D/Luna-Trentinalatte,,46.252438,11.184670,6113
4432,5114Ca,Cicona-Albergo Cima D'asta,,46.160803,11.744054,5114
4433,6326Pl,Campeggio Al Plan,,46.408452,10.795977,6327
4434,6113Cs,Rovere' D/Luna-Campo Sportivo,,46.248808,11.180110,6113
4437,1310Sg,Pera di Fassa-Seg.Vaiolet,,46.438802,11.692741,1310
4439,3045Pa,Folgaria Via N.Unite Civ. 38,,45.913960,11.183378,3045
4440,5065,Lamon,,46.046756,11.748691,5060
4441,5065Za,Zavena di Lamon,,46.057406,11.759861,5060
4442,5065Ol,Oltra di Lamon,,46.064586,11.761671,5060
4443,5065Ca,Campagna di Lamon,,46.052641,11.751259,5060
4444,5065Bo,Lamon Bove,,46.042916,11.748391,5060
4445,5065Bv,Lamon Bivio Piei,,46.035406,11.749641,5060
4446,5065Pv,Pian Del Vescovo,,46.034556,11.755321,5060
4447,5065Ip,Lamon-Distributore,,46.031566,11.756641,5060
4449,5117Ro,Canal S.Bovo-Via Roma,,46.156076,11.731748,5117
4452,4530Ac,Tomaselli Incr. Via Arcevenna,,46.070403,11.524310,4530
4453,1100Os,Civezzano-Loc. Osella,,46.102318,11.174819,1100
4456,2198Bm,Santa Croce Sp 5,,46.024787,10.836441,2198
4457,2054Ud,V.Cavedine-Via S.Udalrico,,45.975251,10.974969,2054
4459,6580Pa,Fondo-Strada Delle Palade 46,,46.441158,11.140422,6580
4460,3100Bl,Rovereto "Liceo Rosmini",,45.895066,11.043407,3100
4461,6686Ca,Castelfondo-Castello,,46.448768,11.123872,6686
4466,6560Ro,Cavareno Via Roma Civ. 20,,46.405818,11.135391,6560
4467,6212Nu,Rallo-Via Nuova Civ. 103,,46.341089,11.045511,6213
4477,7013,S.Bartolameo-Staz. Fs,,46.047460,11.135147,0001
4481,4130Po,Pergine Vals. Susà-V.Pomarol,,46.054240,11.230620,4100
4482,3830Hm,Nosellari-Via Prati,,45.928233,11.253485,3830
4486,5010Dp,Feltre Deposito,,46.010366,11.881119,5010
4491,2125Fa,Pietramurata-Fantasma,,46.017091,10.942043,2058
4492,6220Ru,Cles-Via Ruatti I,,46.355999,11.030947,6220
4493,6220Rs,Cles-Via Ruatti Ii,,46.359118,11.031140,6220
4495,4100Mn,Pergine-V.Marconi 195,,46.067317,11.251306,4100
4496,4100Tr,Pergine-Via Spolverine,,46.065206,11.247419,4100
4497,4100Bb,Pergine-V.Baratieri Teatro,,46.063956,11.242351,4100
4516,4100Pd,Pergine-V.Padova,,46.053710,11.242957,4100
4519,4250Ch,Valcanover-Chiesetta,,46.023185,11.228453,4250
4527,4250Oe,Valcanover-Ortofrutta Eccher,,46.030262,11.228350,4250
4528,4144Ta,Maso Tasin,,46.027052,11.222160,4250
4529,4144Po,Maso Posser,,46.026158,11.219088,4250
4530,4128Pe,Maso Pergher,,46.018407,11.221478,4250
4531,4144Do,Maso Dolzer,,46.029031,11.224062,4250
4532,4128Be,Maso Begher,,46.021651,11.221750,4250
4533,4250La,Valcanover "Ex Lanterna",,46.033103,11.229407,4250
4535,4250Cs,Valcanover "Casa Sociale",,46.025252,11.228626,4250
4540,4121Bc,Viarago Bivio Cittadella,,46.085408,11.276139,4112
4541,4130Ci,Susa'-Via Dei Ciliegi,,46.047837,11.218768,4130
4542,1010Fs,Lavis-Stazione Fs,,46.148219,11.096322,
4543,6100Ff,Mezzocorona-Trenitalia,,46.207494,11.128484,
4572,3341Gh,Marco Via Ghiffa,,45.840142,11.009534,3341
4613,3413Tc,Sorne-Troticoltura,,45.806259,10.952151,3413
4616,3713Me,Povo Via Mesiano,,46.064943,11.141679,0001
4640,6210Ct,Campo Tassullo,,46.331168,11.052569,6210
4641,4400Vu,Borgo V-Bar Vulcano,,46.051684,11.456933,4400
4664,3105So,Nomi-Sp 90 Tre.Cur.T.,,45.935963,11.088317,3105
4666,1250Lo,Moena-Via Lowy 14-16,,46.376133,11.658577,1250CE
4670,2293Fs,Breguzzo-Loc. Fass Civ. 210,,46.011300,10.701938,2293
4671,4060Al,Brusago-Via D.Alighieri 12,,46.178452,11.324666,4060
4678,6174As,Vervo'-Scuola Materna,,46.307456,11.121384,6191
4679,4100Am,Pergine Vals.-Sc.Garbari,,46.066251,11.229915,4100
4684,3045Sg,Folgaria-Via Filzi 41,,45.911216,11.180988,3045
4687,1078Pd,Cembra-Loc. Predole 23/2,,46.169154,11.209925,1078
4688,6720Sp,Livo-Sp 6 Al Km 6,,46.432701,11.019009,6720
4690,6220Sm,Cles-V.Delle Scuole--Sc.Medie,,46.365135,11.029348,6220
4691,2176En,Pranzo-Ex Cabina Enel,,45.921613,10.820781,2189
4693,6650Ts,Cagno'-Terrazza Dei Sapori,,46.393652,11.034126,6650
4695,6180Na,Segno-V.Nazionaletrentingrana,,46.299073,11.069600,6180
4697,0942Rr,Zambana-Statale 12-Rotatoria,,46.152359,11.101232,1010
4704,3711,Villazzano Fs-P/Golfi Urbani,,46.044756,11.139690,0001
4708,4100Cs,Pergine-V.Marconi C.Riposo,,46.064770,11.242578,4100
4709,4100It,Pergine-V.Marconi Itea,,46.066205,11.246528,4100
4716,5143Ss,Passo Cereda Ss 347 Km7.2,,46.191933,11.896861,5143
4720,6300Se,Malè Scuola Elementare,,46.351617,10.915120,6300
4721,3100Ip,Rovereto-Ist. Veronesi,,45.891286,11.034323,3100
4722,6191Na,Tres Via Nazionale 33/24,,46.322670,11.092418,6191
4724,3335,Brustolotti,,45.755971,11.016397,3335
4725,3336,Muravalle,,45.747909,11.038053,3336
4726,3337,Ronchi di Ala,,45.738932,11.065749,3337
4729,3336Ca,Calieri,,45.742258,11.057554,3336
4730,3346Pe,Ala-Via Perlè,,45.758767,11.006905,3346
4733,6155Sm,Tuenno-Scuola Media,,46.327163,11.022798,6155
4734,6210Ma,Tassullo-Scuola Materna,,46.334844,11.051888,6210
4735,0960Da,Riva Del G Vle Dante Alighieri,,45.886255,10.844525,0960
4737,0960Tg,Riva D/Garda Viale Dei Tigli 8,,45.890465,10.843014,0960
4738,3520Ba,Arco Via Battisti 4,,45.918381,10.882459,3520
4739,0960Ca,Brione Campeggio,,45.881518,10.861895,0960
4741,3520Cm,Arco Via Mantova Cimitero,,45.911666,10.881381,3520
4742,0960Pr,Riva V.Rovereto/Pascoli,,45.885012,10.849033,0960
4743,0960Or,Riva V.Rovereto Dif. Coop,,45.881612,10.854462,0960
4746,3520Mr,Arco Via Mantova Dif.Cimitero,,45.911738,10.881409,3520
4747,0960Ir,Riva D/Garda V.Le Dei Tigli 11,,45.890639,10.842853,0960
4749,0960Ad,Riva Del G Vle Dante Alighieri,,45.886213,10.844356,0960
4758,0960Nv,Riva Del G. Via E. Modl,,45.893901,10.852615,0960
4765,2228Ol,Riva Del G. Via Oleandri 24,,45.899534,10.844359,0960
4776,4437,Maso Uelleri,,46.057901,11.400298,4429
4778,4382Ca,Maso Gionzeri,,46.056818,11.407724,4382
4779,4424Bv,Maso Sasso,,46.061239,11.424233,4430
4780,2330,Vestone,,45.708110,10.403516,2330
4781,2332,Lavenone,,45.738956,10.437543,2332
4782,2334,Idro,,45.734609,10.458099,2334
4783,2336,Anfo,,45.766240,10.492104,2336
4786,3337Fe,Loc. Ferri,,45.740039,11.061804,3337
4788,3346Fo,Ala Via Fornace,,45.757754,11.011794,3346
4791,2022Vb,Covelo Via Villa Bassa,,46.098486,11.022229,2023
4793,1123Sa,Facendi V.S.Antonio-Capitello,,46.221460,11.317781,1123
4796,4138Ma,Costasavina Via S.Martino,,46.061224,11.220028,4137
4797,4138Sm,Costasavina Via S.Martino 27,,46.060681,11.225682,4137
4801,6501Se,Coredo-Segheria Biasi,,46.351546,11.098083,6501
4802,0001Pl,Trento "Forte Bus De Vela",,46.084939,11.070058,2010
4803,6650Na,Cagno'-Via Nazionale 58,,46.392655,11.044131,6650
4806,6151Cv,Denno Via Colle Verde,,46.272809,11.048208,6151
4809,3640Su,Aldeno-Maso Canova Sud,,45.960076,11.092721,3640
4810,3356Ka,Chiesurone di Pilcante,,45.787117,11.012143,3356
4812,3044Ac,Carpeneda-Acquedotto,,45.916728,11.149958,3044
4813,3100Pi,Rovereto-Stazione Trenitalia,,45.891820,11.034136,3100
4817,1150Ca,Carano Via Carano 79,,46.290832,11.449060,1070
4824,2330Ca,Vestone-Loc. Capparola,,45.714637,10.412930,2330
4825,2332Na,Lavenone-Via Nazionale,,45.724764,10.428774,2332
4826,2332Zi,Lavenone-Zona Industriale,,45.731256,10.434312,2332
4827,2334Ca,Idro-Loc. Tre Capitelli,,45.751515,10.479574,2334
4828,2336Sp,Anfo-S.P. Km. 50.7,,45.788633,10.500408,2336
4829,2336Sa,Anfo-Locanda Loc. S.Antonio,,45.799373,10.503631,2336
4830,2322Sg,Loc. San Giacomo"Pizzeria",,45.808932,10.509783,2323
4831,2322Tb,Ponte Caffaro-Via Caduti,,45.819870,10.524535,2323
4832,2322Ca,Ponte Caffaro-Via Caduti 214,,45.825015,10.530160,2323
4834,2640La,Vaneze-Via Del Lavachel,,46.055447,11.072394,2640
4835,2322Gc,Loc. San Giacomo,,45.813054,10.515905,2323
4844,6190Rm,Taio Via Roma. 62,,46.316919,11.069182,6190
4845,6190Ro,Taio Via Roma. 122,,46.315062,11.069839,6190
4847,3390,S.Barbara,,45.896161,10.940914,3389
4852,6630Vl,Villini-Via Mendola 5,,46.417827,11.195583,6630
4856,6128Ra,Castelletto "Ponte Rinassico",,46.247843,11.062196,6123
4857,3790Va,Centa Fraz. Valle,,45.964834,11.232628,3790
4858,3790Mc,Centa Fraz. Conci,,45.974350,11.244435,3790
4859,4129So,Canale-Via Delle Stonfe,,46.048812,11.233387,4100
4861,2212Cl,Premione-Via Alla Closura,,46.048034,10.871479,2212
4862,1220Fo,Predazzo-Loc. Fol,,46.322330,11.597912,1220
4863,6720Bv,Preghena-Sp 68 Bivio,,46.407458,11.011754,6720
4865,6310Na,Croviana-Via Nazionale 174,,46.341182,10.900305,6310
4867,4038,Loc. Canè,,46.119116,11.260806,4038
4868,4037,Loc. Fiorè,,46.120680,11.265439,4038
4870,6191Se,Tres Via Nazionale 12,,46.320661,11.093017,6191
4871,6550Rm,Romeno-Via S.Romedio,,46.391671,11.117453,6550
4874,0961Pz,S.Martino di C.-Via Pezgaiard,,46.259430,11.808832,0961
4879,4457Ma,Tezze-V. Masetto Vecchio,,45.997899,11.668582,4457
4880,6120Bf,Mezzolombardo-Bivio Fai,,46.223117,11.081667,6120
4881,3100Gb,Rovereto Via S.Giovanni Bosco,,45.891524,11.041678,3100
4882,2178Zu,Campi Loc.Zumiani,,45.913493,10.816376,2189
4886,6239,Bordiana,,46.387216,10.981980,6240
4889,3209Ze,Zencheri,,45.881634,11.157096,3209
4891,0938Po,Lamar-Ponte Avisio,,46.134630,11.110901,0937
4893,6530Ca,Malgolo-Via Al Castello 6,,46.384563,11.094848,6530
4894,1080El,Valda-Via Centrale 25,,46.210886,11.272480,1080
4895,6600Of,Ronzone-Via 4 Novembre 44,,46.418925,11.145811,6600
4896,6687Rm,Dovena-Via Roma Civ. 4,,46.456546,11.127469,6686
4897,6687Ro,Dovena-Inizio Paese,,46.457487,11.125253,6686
4898,6151Mc,Denno-Via Marconi 46,,46.272566,11.052235,6151
4904,3690Bg,Garniga T.-V.Bagni di Fieno 1,,45.999662,11.085768,3690
4905,2241Sc,Marce' Sp 222 Km 0.650,,46.021054,10.822248,2241
4916,6215Bg,Nanno-Via Bergamo Civ. 5,,46.319385,11.046685,6215
4919,2291Pa,Verdesina-Paese,,46.054909,10.713245,2291
4921,0001Tt,Trentino Trasporti,,46.102234,11.094461,0937
4923,1100Mz,Civezzano-Maso Zandonà,,46.087830,11.190620,1100
4924,3042Ba,Mezzomonte-Loc. Barco,,45.922700,11.135809,3042
4926,6113Rr,Rovere' Della Luna,,46.248924,11.169539,6113
4939,3470Zr,Nago Bivio Z.A.I. Mala,,45.877840,10.898898,3470
4941,5110Na,Imer Via Nazionale 144,,46.149793,11.791693,5110
4942,5114Bo,Cicona Sp Km 2.4,,46.160321,11.740895,5114
4951,3620Bo,Romagnano-Maso Bozza,,45.997977,11.101563,3620
4953,2313Rs,Casa Rossa-Bar Ristoro,,45.854845,10.566903,2314
4954,2621Pa,Sopramonte-Via Belina,,46.072241,11.063013,2621
4955,2621Be,Sopramonte-Via Belina 11,,46.070915,11.063184,2621
4957,2621Bu,Sopramonte "Bunaga",,46.069391,11.057334,2621
4960,4023Sg,Nogarè-V.Di S.Giuseppe,,46.103967,11.211665,4023
4961,3040Ci,Calliano Sp 49 "Cimitero",,45.936629,11.098121,3040
4963,2021Li,Lago di Terlago-Hotel Lillà,,46.097411,11.058247,2021
4964,2021Po,Lago di Terlago-Ponte,,46.095602,11.055256,2021
4965,1030Fs,Magrè-Cortaccia-Trenitalia,,46.245539,11.202524,
4966,1050Fs,Egna-Termeno-Trenitalia,,46.319098,11.257383,
4967,1167Fs,Ora-Stazione Fs-Trenitalia,,46.360976,11.297562,1167
4968,1045Fs,Magrè-Cortaccia-Trenitalia,,46.287799,11.232468,
4970,1055,Montagna,,46.333021,11.299352,
4971,1056,Ponte Aldino,,46.342951,11.336949,
4972,2041Ve,Fraveggio Loc. Vernisi,,46.080553,10.995849,2040
4973,0954Se,S. Michele A/Adige-Sc.Elem.,,46.189874,11.134127,6110
4979,4100Sl,Pergine-Via S.Pietro Asl,,46.063213,11.244429,4100
4980,4100Sp,Pergine V.S.Pietro Parch.Curie,,46.063433,11.245601,4100
4993,3357Er,Sabbionara V.Pozza "Erta",,45.743006,10.967607,3349
4994,3357Mo,Sabbionara Via Morielle,,45.742358,10.956580,3349
5010,3053Ma,Morganti-Maso Romina,,45.930745,11.224036,3053
5013,3337Po,Ponzolotti,,45.738779,11.070718,3337
5014,5123St,Revedea Sp 79 Civ. 18,,46.152752,11.747616,5115
5017,2439,Massimeno,,46.141960,10.773446,2440
5018,2030Pa,Vigolo Baselga-Paese,,46.081576,11.044892,2030
5025,2620Ve,Sardagna Civ.20,,46.073125,11.093579,2620
5035,3201Mb,Noriglio Loc. Masi Brenta,,45.878437,11.084034,3198
5037,4260Di,Calceranica C.So Alpini Gmp,,46.001500,11.245598,4260
5038,4350Ca,Levico T. Fraz. Campiello,,46.018805,11.353077,4350
5043,0957Pa,Madonna di C.-Loc.Paluac,,46.205362,10.813260,0957
5050,5143No,Passo Cereda Civ 9,,46.192636,11.902743,5143
5051,6281Bv,Samoclevo-Bivio,,46.365038,10.937469,6280
5053,6147Nd,Termon Nord,,46.270225,11.036677,6151
5055,2250Ma,Ragoli "Macelleria",,46.051624,10.775140,2240
5059,6300Al,Male' Via Degli Alpini 2,,46.353384,10.911178,6300
5060,6630Al,Villini Dell'alpe Via Bolzano,,46.418562,11.189171,6630
5063,6501Ta,Coredo Via Tavon 42,,46.353683,11.088052,6501
5064,6501Tn,Coredo Via Trento,,46.347117,11.086840,6501
5065,3870Ac,Lavarone Civ. 61,,45.939296,11.273852,3870
5067,6137Bp,Andalo-Bivio Priori,,46.177371,11.017827,6137
5075,6686Da,Castelfondo Via Dante,,46.452529,11.121792,6686
5077,0954Im,S.Michele "Fondazione-Mensa",,46.194907,11.135489,6110
5080,6405Se,Cogolo Polo Scolastico,,46.347399,10.696840,6405
5082,4520Cl,Strigno Via Colle Civ. 6,,46.067170,11.519093,4520
5087,6120Ma,M.Do Sc. Sup.Martini,,46.217566,11.093386,6120
5088,3357Dg,Sabbionara Via De Gasperi,,45.738765,10.952482,3349
5090,3851Sc,Gionghi-Polo Scolastico,,45.940038,11.268658,3851
5102,0956Dp,Molveno Deposito,,46.149626,10.980086,0956
5103,4300Ps,Levico T. Polo Scolastico,,46.013611,11.306300,4300
5111,6095Cl,Loc. Coveli Civ. 35,,46.197724,11.143660,6095
5112,6144Sp,Lover,,46.250788,11.026344,6144
5113,6580No,Fondo-Via Iv Novembre,,46.441452,11.130891,6580
5116,6560Rn,Cavareno Via Roen 32,,46.403976,11.139552,6560
5119,6174Rr,Vervo',,46.307457,11.118916,6191
5134,1151Mi,Masi-Via Micelette Civ. 4,,46.281815,11.499285,1070
5135,2055Rg,Masi di Cavedine-Maso Reigl,,45.972251,10.980800,2055
5136,2055Ms,Masi di Cavedine-Maso Samuele,,45.967937,10.979949,2055
5137,2055Si,Masi di Cavedine-Maso Silvio,,45.966582,10.978171,2055
5138,2055Zu,Masi di Cavedine-Incr V.Zurlon,,45.964407,10.976932,2055
5139,2055St,Masi di Cavedine Sotto Civ. 6,,45.966510,10.973483,2055
5141,6501Za,Coredo Via Zambaroni 12,,46.349177,11.088842,6501
5144,1001Bc,Torchio Bivio Cogatti,,46.091010,11.196994,1001
5146,6398Se,Ossana Scuola Elementare,,46.307678,10.739560,6398
5147,6216St,Portolo-Via San Tomaso,,46.305004,11.056616,6216
5149,4449Fs,Strigno-Stazione Fs,,46.051416,11.514744,
5150,1350Hs,Campitello Hotel Salvan,,46.474285,11.738380,1350
5151,3100Sf,Rovereto-Fermata Trenitalia,,45.890326,11.033850,3100
5152,3310Fs,Mori-Trenitalia,,45.861249,11.002346,3310
5153,3342Sf,Serravalle-Trenitalia,,45.808287,11.015222,3342
5154,3346Sf,Ala-Trenitalia,,45.758925,10.996328,3346
5155,3350Fs,Avio-Trenitalia,,45.733690,10.956084,3350
5156,3352Fs,Borghetto-Trenitalia,,45.696733,10.926909,3352
5162,4080To,Cire' Via Al Dos De La Roda 12,,46.074601,11.211551,4015
5165,2048Sc,Calavino-Via Battisti Civ 20,,46.040787,10.982034,2048
5169,0001Cd,Trento Ss45 "Scala",,46.077367,11.099792,0001
5173,4449Bb,Strigno Fs-Bretella Mag.Brico,,46.052372,11.510935,4449
5175,2178Bp,Campi Bv 37 Dir-X Loc Parisi,,45.911446,10.808676,2189
5180,5111Bu,Imer-Loc. Busarel,,46.140566,11.773656,5111
5182,6191Ta,Tres Via Predaia Inc. V.Tavana,,46.322055,11.099929,6191
5185,5130Se,Mezzano-Sc.Elementari,,46.156586,11.808305,5130
5190,3780Ti,Centa Bv Tiecheri-Frisanchi,,45.965305,11.224658,3790
5201,3300Lr,Rov.Z.Ind. Difr."Luxottica" R,,45.865303,11.018506,3100
5202,3640Ma,Romagnano Loc.Torricella Sft,,45.993002,11.098521,3620
5203,2620Vd,Sardagna Civ. 22,,46.069494,11.095252,2620
5204,4140Ps,Frassilongo-Maso Pinterstoll,,46.080380,11.285129,4113
5205,4454Sv,Grigno Casearia Monti Trentini,,46.006597,11.649483,4454
5207,2323As,Baitoni-Via Aldo Sette Civ.1,,45.813643,10.547147,2323
5213,5130Vs,Mezzano-Via Molaren 27,,46.160760,11.817183,5130
5215,1223Pc,Pian Dei Casoni,,46.321572,11.778875,1223
5217,2340Co,Villa Rendena-Conad,,46.062272,10.711986,2340
5218,2460Pa,Carisolo-Palestra,,46.166301,10.757389,2460
5219,2460Ho,Carisolo-Hotel Orso Grigio,,46.165112,10.758621,2460
5220,2450Pg,Pinzolo-Palazzo Del Ghiaccio,,46.156772,10.760181,2450
5221,2450Co,Pinzolo-V.Battaglione Cavento,,46.159874,10.761536,2450
5222,2440Ma,Giustino,,46.146227,10.769310,2440
5231,5127Sc,Barbine Sp 239 Km. 0.500,,46.157203,11.753757,5127
5236,2186Cs,Favrio Civ. 65,,45.999626,10.852372,2185
5237,3820Mz,Carbonare Via Manzoni,,45.934041,11.229044,3820
5239,2660Sp,Viote Golfo Sulla Sp85,,46.021567,11.042522,2660
5240,2010Cf,Cadine Strada di Cadine 5,,46.086923,11.069368,2010
5248,4463Px,Telve di Sopra Via S.Pio X,,46.073309,11.471692,4463
5252,6560Re,Cavareno Via Roen 59,,46.400741,11.140284,6560
5253,3230Vb,Porte Via Al Brentegam,,45.880954,11.052889,3230
5257,6513Ca,Dambel-Loc. Casette,,46.409036,11.102603,6513
5259,2323Ar,Baitoni-V. Aldo Sette Civ.1,,45.812948,10.546639,2323
5260,4100Nr,Viale Industria Amnu,,46.068689,11.233672,4100
5264,6725Sc,Marcena-Sp 6,,46.442657,11.011787,6730
5266,0956Be,Molveno-V.Nazionale,,46.141903,10.963974,0956
5268,6390Sc,Ortise' C/O Accesso Nord Paese,,46.328622,10.784462,6390
5273,1088Vw,Molina di F.-Via Weber/Rive,,46.273244,11.422097,1088
5275,2311Il,Condino Sp123 Stab. Illen,,45.896086,10.606683,2311
5276,3640Eu,Aldeno Viale Europa,,45.982499,11.093579,3640
5277,3640Fl,Aldeno-Via Florida,,45.977966,11.092905,3640
5278,3047Pa,Serrada Via Pasubio,,45.888655,11.153269,3047
5280,3335Ro,Brustolotti Loc. Rocca,,45.753211,11.026404,3335
5281,1088Sk,Molina di Fiemme Piazza,,46.273110,11.416510,1088
5297,3165Za,Speccheri Sp 219 Km 1.100,,45.774515,11.122089,3165
5302,2213Cb,Stenico-Loc. Ca' Bianca,,46.052009,10.871109,2213
5352,6389St,Castello-Bivio di Stavel,,46.321463,10.782423,6389
5353,3389Ri,Ronzo Chienis-V.Pra Da Le Rì,,45.891098,10.949606,3389
5369,2049Pe,Lasino Sp 84 Viale San Pietro,,46.020354,10.982117,2049
5375,6135Ca,Fai Paganella,,46.175418,11.068633,6135
5385,3382Br,Manzano-Bivio,,45.864542,10.950121,3381
5392,1138Vc,Pian Del Gac Civ. 25,,46.133573,11.205898,1111
5394,3540Ca,Massone Via Cappuccini,,45.920537,10.901734,3520
5395,2138Ce,Ceole "Cementificio",,45.909601,10.855214,3520
5400,4494Fs,Cismon Del Grappa-Fs,,45.919665,11.729849,4494
5401,4495Fs,S.Marino-Staz. Fs,,45.899530,11.694247,4495
5402,4491Fs,Carpanè-Staz. Fs,,45.859998,11.660863,4491
5403,4496Fs,S.Nazario-Staz. Fs,,45.839699,11.687865,4496
5404,4492Fs,Solagna-Staz. Fs,,45.815551,11.721238,4492
5405,4493Fs,Bassano Del Grappa-St.Fs,,45.766709,11.741650,4493
5425,5116Bb,Zortea Bar Bellavista,,46.163628,11.753067,5116
5447,1182Pz,Stava-Hotel Pozzole,,46.320313,11.496622,1182
5449,2159Bi,Ampola "Parch. Biotopo",,45.872717,10.652963,2159
5450,2157Pa,Tremalzo Parcheggio,,45.864065,10.645069,2159
5458,2021Om,Terlago Via Omigo,,46.097912,11.047916,2021
5460,4143Mk,Hacleri-Maso Markl,,46.121312,11.339035,4143
5462,4100Op,Via S.Pietro 82,,46.065063,11.248732,4100
5464,6370Gi,Loc. Giare,,46.319956,10.819227,6370
5466,6190Ra,Taio Via Roma,,46.313915,11.070562,6190
5470,4048Al,Regnana Alta,,46.151194,11.310710,4048
5472,6143Ot,Sporminore Civ. 86,,46.238268,11.027413,6143
5473,6510Nn,Sanzeno Civ. 61,,46.368681,11.078431,6510
5475,3100Sv,Rovereto-Via Savioli,,45.892086,11.037432,3100
5479,6387Nd,Claiano Nord-Sp 140,,46.316343,10.773087,6386
5483,3010Ca,Mattarello-Via Catoni,,46.003128,11.126824,3010
5484,3010Vr,Mattarello-Ex St.Vestimenta,,46.000537,11.126173,3010
5489,4023Pi,Nogarè-Via Pinetana 2/A,,46.100574,11.212098,4023
5491,6210Qr,Tassullo Strada Quattro Ville,,46.339776,11.052385,6210
5492,2198Pg,Santa Croce Sp 5 Diram.Bivedo,,46.024475,10.836250,2198
5494,3232Pl,Foppiano-Piazzale Chiesa,,45.840857,11.062823,3232
5499,1250Za,Moena Ss.48-Zona Artigianale,,46.360950,11.644593,1250
5551,0956As,Molveno Lago di Bior,,46.138506,10.970987,0956
5584,6220Se,Cles-V.Delle Scuole--Sc.Elem.,,46.364826,11.030572,6220
5594,3310Ar,Mori Via Del Garda. 63,,45.851453,10.972499,3310
5598,2155Lu,Tiarno di Sotto-S.Lucia,,45.892697,10.702086,2155
5604,6501Ro,Coredo "Rotatoria",,46.347618,11.081570,6501
5606,6340Ca,Dimaro-Via Campiglio,,46.322945,10.875393,6340
5608,5010Ri,Feltre-Via Rizzarda Civ. 16,,46.020977,11.900702,5010
5609,4400Bc,Borgo-Bocciodromo,,46.051717,11.454155,4400
5615,6151De,Denno-Via Degasperi 42/A,,46.279341,11.047309,6151
5621,2221Sa,Villa Loc.S.Antonio,,45.930264,10.824043,2210
5624,6382Ss,Marilleva 1400,,46.304257,10.809213,6382
5625,3542Ur,Mori di Fronte Mc Donalds,,45.860462,11.001507,3542
5631,4050Ro,Bedollo Via Ronchi,,46.168616,11.309510,4050
5641,4100Os,Ospedale Villa Rosa,,46.064608,11.248558,4100
5648,4461Go,Telve Sp 110 Bv Via Borgo,,46.064371,11.476684,4461GO
